{
"type": "FeatureCollection",
"name": "ENTIDADES CON SEDES",
"crs": { "type": "name", "properties": { "name": "urn:ogc:def:crs:OGC:1.3:CRS84" } },
"features": [
{ "type": "Feature", "properties": { "Name": "CENTRO VECINAL RIVERA INDARTE", "TIPO_DE_INSTITUCI__N": "CENTRO VECINAL", "CPC": "ARGUELLO", "SECCIONAL": 14, "CIRCUITO": "14C", "DIRECCION": "LABORDE N° 7705", "TIPO_DE_INMUEBLE": "COMODATO MUNICIPAL", "gx_media_links": null, "N": "CENTRO VECINAL", "TIPO DE INMUEBLE": "COMODATO MUNICIPAL" }, "geometry": { "type": "Point", "coordinates": [ -64.295379, -31.332087 ] } },
{ "type": "Feature", "properties": { "Name": "CENTRO VECINAL 16 DE NOVIEMBRE ", "TIPO_DE_INSTITUCI__N": "CENTRO VECINAL ", "CPC": "ARGUELLO", "SECCIONAL": 14, "CIRCUITO": "14H", "DIRECCION": "CAUQUE ESQ JOSÉ TORRE REVELLO", "TIPO_DE_INMUEBLE": "PRESTADO ", "gx_media_links": null, "N": "CENTRO VECINAL", "TIPO DE INMUEBLE": "PRESTADO" }, "geometry": { "type": "Point", "coordinates": [ -64.26154, -31.31321 ] } },
{ "type": "Feature", "properties": { "Name": "CENTRO VECINAL VILLA QUISQUIZACATE", "TIPO_DE_INSTITUCI__N": "CENTRO VECINAL", "CPC": "ARGUELLO", "SECCIONAL": 14, "CIRCUITO": "14C", "DIRECCION": "LLOQUE N° 8426", "TIPO_DE_INMUEBLE": "COMODATO MUNICIPAL EN TRAMITE", "gx_media_links": null, "N": "CENTRO VECINAL", "TIPO DE INMUEBLE": "COMODATO MUNICIPAL EN TRAMITE" }, "geometry": { "type": "Point", "coordinates": [ -64.281521, -31.331658 ] } },
{ "type": "Feature", "properties": { "Name": "CENTRO VECINAL VILLA CORNU Y POLICIAL", "TIPO_DE_INSTITUCI__N": "CENTRO VECINAL", "CPC": "ARGUELLO", "SECCIONAL": 14, "CIRCUITO": "14H", "DIRECCION": "QUILLOAMIRA ESQ. LLANCANQUEL N° 9400", "TIPO_DE_INMUEBLE": "COMODATO MUNICIPAL", "gx_media_links": null, "N": "CENTRO VECINAL", "TIPO DE INMUEBLE": "COMODATO MUNICIPAL" }, "geometry": { "type": "Point", "coordinates": [ -64.269536, -31.314194 ] } },
{ "type": "Feature", "properties": { "Name": "CENTRO VECINAL 2 DE SEPTIEMBRE Y GRANJA DE FUNDES II", "TIPO_DE_INSTITUCI__N": "CENTRO VECINAL", "CPC": "ARGUELLO", "SECCIONAL": 14, "CIRCUITO": "14A", "DIRECCION": "CAYETANO DAMICO ESQ. FARABOLLINI JORGE", "TIPO_DE_INMUEBLE": "COMODATO PROVINCIAL", "gx_media_links": null, "N": "CENTRO VECINAL", "TIPO DE INMUEBLE": "COMODATO PROVINCIAL" }, "geometry": { "type": "Point", "coordinates": [ -64.244741, -31.334422 ] } },
{ "type": "Feature", "properties": { "Name": "CENTRO VECINAL VILLA ALLENDE PARQUE", "TIPO_DE_INSTITUCI__N": "CENTRO VECINAL", "CPC": "ARGUELLO", "SECCIONAL": 14, "CIRCUITO": "14K", "DIRECCION": "LINCÓ N° 9360 ESQ. MACHA", "TIPO_DE_INMUEBLE": "COMODATO MUNICIPAL EN TRAMITE", "gx_media_links": null, "N": "CENTRO VECINAL", "TIPO DE INMUEBLE": "COMODATO MUNICIPAL EN TRAMITE" }, "geometry": { "type": "Point", "coordinates": [ -64.283247, -31.315528 ] } },
{ "type": "Feature", "properties": { "Name": "CENTRO VECINAL VILLA SERRANA", "TIPO_DE_INSTITUCI__N": "CENTRO VECINAL", "CPC": "ARGUELLO", "SECCIONAL": 14, "CIRCUITO": "14O", "DIRECCION": "SINCHI ROCA N° 7890 ESQ. MOCHICA", "TIPO_DE_INMUEBLE": "COMODATO MUNICIPAL VIGENTE", "gx_media_links": null, "N": "CENTRO VECINAL", "TIPO DE INMUEBLE": "COMODATO MUNICIPAL VIGENTE" }, "geometry": { "type": "Point", "coordinates": [ -64.27847, -31.330669 ] } },
{ "type": "Feature", "properties": { "Name": "CENTRO VECINAL VILLA RIVERA INDARTE", "TIPO_DE_INSTITUCI__N": "CENTRO VECINAL", "CPC": "ARGUELLO", "SECCIONAL": 14, "CIRCUITO": "14P", "DIRECCION": "IGLESIA VIEJA N° 9110 ESQ. LAGUNA LARGA", "TIPO_DE_INMUEBLE": "COMODATO MUNICIPAL", "gx_media_links": null, "N": "CENTRO VECINAL", "TIPO DE INMUEBLE": "COMODATO MUNICIPAL" }, "geometry": { "type": "Point", "coordinates": [ -64.293674, -31.321161 ] } },
{ "type": "Feature", "properties": { "Name": "CENTRO VECINAL MERCANTIL", "TIPO_DE_INSTITUCI__N": "CENTRO VECINAL", "CPC": "ARGUELLO", "SECCIONAL": 14, "CIRCUITO": "14H", "DIRECCION": "GUILLERMO FURLONG ESQ. JACINTO YABEN", "TIPO_DE_INMUEBLE": "COMODATO MUNICIPAL VIGENTE", "gx_media_links": null, "N": "CENTRO VECINAL", "TIPO DE INMUEBLE": "COMODATO MUNICIPAL VIGENTE" }, "geometry": { "type": "Point", "coordinates": [ -64.257125, -31.320487 ] } },
{ "type": "Feature", "properties": { "Name": "CENTRO VECINAL VILLA 9 DE JULIO", "TIPO_DE_INSTITUCI__N": "CENTRO VECINAL", "CPC": "ARGUELLO", "SECCIONAL": 14, "CIRCUITO": "14O", "DIRECCION": "COQUENA M°7848 ESQ. HUARPES", "TIPO_DE_INMUEBLE": "PROPIO", "gx_media_links": null, "N": "CENTRO VECINAL", "TIPO DE INMUEBLE": "PROPIO" }, "geometry": { "type": "Point", "coordinates": [ -64.277503, -31.328441 ] } },
{ "type": "Feature", "properties": { "Name": "CENTRO VECINAL ARGUELLO NORTE", "TIPO_DE_INSTITUCI__N": "CENTRO VECINAL", "CPC": "ARGUELLO", "SECCIONAL": 14, "CIRCUITO": "14A", "DIRECCION": "JULIO BEJANELE N° 7451", "TIPO_DE_INMUEBLE": "PROPIO", "gx_media_links": null, "N": "CENTRO VECINAL", "TIPO DE INMUEBLE": "PROPIO" }, "geometry": { "type": "Point", "coordinates": [ -64.264499, -31.329375 ] } },
{ "type": "Feature", "properties": { "Name": "COMISION DE VECINOS AUTODROMO", "TIPO_DE_INSTITUCI__N": "COMISION DE VECINOS", "CPC": "ARGUELLO", "SECCIONAL": 14, "CIRCUITO": "14A", "DIRECCION": "ANTONIO OVIDES N° 6587", "TIPO_DE_INMUEBLE": "PROPIO", "gx_media_links": null, "N": "COMISION DE VECINOS", "TIPO DE INMUEBLE": "PROPIO" }, "geometry": { "type": "Point", "coordinates": [ -64.251799, -31.326989 ] } },
{ "type": "Feature", "properties": { "Name": "COMISION DE VECINOS LOS BOULEVARES", "TIPO_DE_INSTITUCI__N": "COMISION DE VECINOS", "CPC": "ARGUELLO", "SECCIONAL": 14, "CIRCUITO": "14G", "DIRECCION": "PJE. TUCUMAN ESQ. SANTA CATALINA", "TIPO_DE_INMUEBLE": "COMODATO MUNICIPAL VIGENTE", "gx_media_links": null, "N": "COMISION DE VECINOS", "TIPO DE INMUEBLE": "COMODATO MUNICIPAL VIGENTE" }, "geometry": { "type": "Point", "coordinates": [ -64.2217103, -31.3393544 ] } },
{ "type": "Feature", "properties": { "Name": "CENTRO VECINAL EL CERRITO", "TIPO_DE_INSTITUCI__N": "CENTRO VECINAL", "CPC": "ARGUELLO", "SECCIONAL": 14, "CIRCUITO": "14A", "DIRECCION": "PLAZO DERECHO DE LOS NIÑOS CALLE MARIO SESAREGO, MARIANO DE LA FUENTE Y JOSE RAMONDA", "TIPO_DE_INMUEBLE": "N\/C", "gx_media_links": null, "N": "CENTRO VECINAL", "TIPO DE INMUEBLE": "N\/C" }, "geometry": { "type": "Point", "coordinates": [ -64.248663, -31.324146 ] } },
{ "type": "Feature", "properties": { "Name": "CENTRO VECINAL HIPÓLITO IRIGOYEN", "TIPO_DE_INSTITUCI__N": "CENTRO VECINAL", "CPC": "CENTRO AMÉRICA ", "SECCIONAL": 7, "CIRCUITO": "7G", "DIRECCION": "AVELLANEDA N° 3577", "TIPO_DE_INMUEBLE": "PROPIO", "gx_media_links": null, "N": "CENTRO VECINAL", "TIPO DE INMUEBLE": "PROPIO" }, "geometry": { "type": "Point", "coordinates": [ -64.186892, -31.373059 ] } },
{ "type": "Feature", "properties": { "Name": "CENTRO VECINAL GENERAL BUSTOS SUR", "TIPO_DE_INSTITUCI__N": "CENTRO VECINAL", "CPC": "CENTRO AMERICA", "SECCIONAL": 13, "CIRCUITO": "13C", "DIRECCION": "SARAVIA N° 550", "TIPO_DE_INMUEBLE": "COMODATO PROVINCIAL", "gx_media_links": null, "N": "CENTRO VECINAL", "TIPO DE INMUEBLE": "COMODATO PROVINCIAL" }, "geometry": { "type": "Point", "coordinates": [ -64.17039, -31.394957 ] } },
{ "type": "Feature", "properties": { "Name": "CENTRO VECINAL ALTA CORDOBA", "TIPO_DE_INSTITUCI__N": "CENTRO VECINAL", "CPC": "CENTRO AMÉRICA", "SECCIONAL": 7, "CIRCUITO": "7B", "DIRECCION": "MARIANO FRAGUEIRO N° 3280", "TIPO_DE_INMUEBLE": "COMODATO PROVINCIAL", "gx_media_links": null, "N": "CENTRO VECINAL", "TIPO DE INMUEBLE": "COMODATO PROVINCIAL" }, "geometry": { "type": "Point", "coordinates": [ -64.183703, -31.377243 ] } },
{ "type": "Feature", "properties": { "Name": "CENTRO VECINAL AYACUCHO", "TIPO_DE_INSTITUCI__N": "CENTRO VECINAL", "CPC": "CENTRO AMÉRICA", "SECCIONAL": 13, "CIRCUITO": "13A", "DIRECCION": "AV. ARTURO CAPDEVILA N° 290 ESQ. OBISPO CARRANZA", "TIPO_DE_INMUEBLE": "COMODATO MUNICIPAL VIGENTE", "gx_media_links": null, "N": "CENTRO VECINAL", "TIPO DE INMUEBLE": "COMODATO MUNICIPAL VIGENTE" }, "geometry": { "type": "Point", "coordinates": [ -64.17067, -31.380057 ] } },
{ "type": "Feature", "properties": { "Name": "CENTRO VECINAL PARQUE LICEO SECCIÓN 1", "TIPO_DE_INSTITUCI__N": "CENTRO VECINAL", "CPC": "CENTRO AMÉRICA ", "SECCIONAL": 13, "CIRCUITO": "13G", "DIRECCION": "JOSE ASUNCION SILVA N° 4735", "TIPO_DE_INMUEBLE": "COMODATO MUNICIPAL", "gx_media_links": null, "N": "CENTRO VECINAL", "TIPO DE INMUEBLE": "COMODATO MUNICIPAL" }, "geometry": { "type": "Point", "coordinates": [ -64.171579, -31.353233 ] } },
{ "type": "Feature", "properties": { "Name": "CENTRO VECINAL MARIANO FRAGUEIRO", "TIPO_DE_INSTITUCI__N": "CENTRO VECINAL", "CPC": "CENTRO AMERICA", "SECCIONAL": 7, "CIRCUITO": "7G", "DIRECCION": "JOSE JENIG N° 990 ESQ. MACKAY GORDON", "TIPO_DE_INMUEBLE": "COMODATO MUNICIPAL VIGENTE", "gx_media_links": null, "N": "CENTRO VECINAL", "TIPO DE INMUEBLE": "COMODATO MUNICIPAL VIGENTE" }, "geometry": { "type": "Point", "coordinates": [ -64.187333, -31.36498 ] } },
{ "type": "Feature", "properties": { "Name": "CENTRO VECINAL MARCELO T. DE ALVEAR Y VILLA AZALAIS OESTE", "TIPO_DE_INSTITUCI__N": "CENTRO VECINAL", "CPC": "CENTRO AMÉRICA ", "SECCIONAL": 13, "CIRCUITO": "13A", "DIRECCION": "MIGUEL CANE N° 3201 ESQ. GERCHUNOFF", "TIPO_DE_INMUEBLE": "COMODATO MUNICIPAL VIGENTE", "gx_media_links": null, "N": "CENTRO VECINAL", "TIPO DE INMUEBLE": "COMODATO MUNICIPAL VIGENTE" }, "geometry": { "type": "Point", "coordinates": [ -64.172451, -31.366445 ] } },
{ "type": "Feature", "properties": { "Name": "CENTRO VECINAL GENERAL SAVIO", "TIPO_DE_INSTITUCI__N": "CENTRO VECINAL", "CPC": "CENTRO AMÉRICA", "SECCIONAL": 13, "CIRCUITO": "13J", "DIRECCION": "MARCO DEL PONT N° 2889", "TIPO_DE_INMUEBLE": "PROPIO", "gx_media_links": null, "N": "CENTRO VECINAL", "TIPO DE INMUEBLE": "PROPIO" }, "geometry": { "type": "Point", "coordinates": [ -64.156502, -31.374033 ] } },
{ "type": "Feature", "properties": { "Name": "CENTRO VECINAL PANAMERICANO", "TIPO_DE_INSTITUCI__N": "CENTRO VECINAL", "CPC": "CENTRO AMÉRICA ", "SECCIONAL": 7, "CIRCUITO": "7G", "DIRECCION": "MOSCONI N° 520 ESQ. JUJUY", "TIPO_DE_INMUEBLE": "COMODATO MUNICIPAL VIGENTE", "gx_media_links": null, "N": "CENTRO VECINAL", "TIPO DE INMUEBLE": "COMODATO MUNICIPAL VIGENTE" }, "geometry": { "type": "Point", "coordinates": [ -64.181297, -31.369852 ] } },
{ "type": "Feature", "properties": { "Name": "COMISION DE VECINOS GENERAL BUSTOS Y 20 DE JUNIO", "TIPO_DE_INSTITUCI__N": "COMISION DE VECINOS", "CPC": "CENTRO AMÉRICA ", "SECCIONAL": 13, "CIRCUITO": "13C", "DIRECCION": "MARACAIBO N° 450", "TIPO_DE_INMUEBLE": "USURPACIÓN PARCIAL", "gx_media_links": null, "N": "COMISION DE VECINOS", "TIPO DE INMUEBLE": "USURPACIÓN PARCIAL" }, "geometry": { "type": "Point", "coordinates": [ -64.170736, -31.38289 ] } },
{ "type": "Feature", "properties": { "Name": "COMISION DE VECINOS CENTRO AMERICA", "TIPO_DE_INSTITUCI__N": "COMISION DE VECINOS", "CPC": "CENTRO AMÉRICA", "SECCIONAL": 13, "CIRCUITO": "13A", "DIRECCION": "A. SANCHEZ ARIÑO N° 2502", "TIPO_DE_INMUEBLE": "COMODATO MUNICIPAL", "gx_media_links": null, "N": "COMISION DE VECINOS", "TIPO DE INMUEBLE": "COMODATO MUNICIPAL" }, "geometry": { "type": "Point", "coordinates": [ -64.173731, -31.372893 ] } },
{ "type": "Feature", "properties": { "Name": "COMISION DE VECINOS RESIDENCIAL AMERICA", "TIPO_DE_INSTITUCI__N": "COMISION DE VECINOS", "CPC": "CENTRO AMÉRICA", "SECCIONAL": 13, "CIRCUITO": "13J", "DIRECCION": "TARIJA N° 879", "TIPO_DE_INMUEBLE": "COMODATO MUNICIPAL", "gx_media_links": null, "N": "COMISION DE VECINOS", "TIPO DE INMUEBLE": "COMODATO MUNICIPAL" }, "geometry": { "type": "Point", "coordinates": [ -64.163675, -31.381009 ] } },
{ "type": "Feature", "properties": { "Name": "COMISION DE VECINOS LOS ÁLAMOS", "TIPO_DE_INSTITUCI__N": "COMISION DE VECINOS", "CPC": "CENTRO AMERICA", "SECCIONAL": 13, "CIRCUITO": "13J", "DIRECCION": "AV. F. PARRAVICINI ESQ. C. GAUDENCIO", "TIPO_DE_INMUEBLE": "COMODATO MUNICIPAL EN TRAMITE", "gx_media_links": null, "N": "COMISION DE VECINOS", "TIPO DE INMUEBLE": "COMODATO MUNICIPAL EN TRAMITE" }, "geometry": { "type": "Point", "coordinates": [ -64.158049, -31.367411 ] } },
{ "type": "Feature", "properties": { "Name": "COMISION DE VECINOS AMPLIACION RESIDENCIAL AMERICA", "TIPO_DE_INSTITUCI__N": "COMISION DE VECINOS", "CPC": "CENTRO AMÉRICA", "SECCIONAL": 13, "CIRCUITO": "13J", "DIRECCION": "BILBISACATE N° 2580", "TIPO_DE_INMUEBLE": "COMODATO MUNICIPAL", "gx_media_links": null, "N": "COMISION DE VECINOS", "TIPO DE INMUEBLE": "COMODATO MUNICIPAL" }, "geometry": { "type": "Point", "coordinates": [ -64.163107, -31.375533 ] } },
{ "type": "Feature", "properties": { "Name": "CENTRO VECINAL LAS PALMAS Y AMPLIACION LAS PALMAS", "TIPO_DE_INSTITUCI__N": "CENTRO VECINAL", "CPC": "COLON", "SECCIONAL": 11, "CIRCUITO": "11C", "DIRECCION": "AV. DON BOSCO N° 4556", "TIPO_DE_INMUEBLE": "PROPIO", "gx_media_links": "https:\/\/lh3.googleusercontent.com\/umsh\/AN6v0v7Qp9GJbJG764qZNqvyjBwNK-PZ0XB1FC3gHdFbrz8atteGr-88BYAvVg3VXUZZXC7mK_GXRWtsdanQeV8zfoL-CUyh_278-zbn0mAP0Ox6YWoEoT_t1AEsRcU-qVoF8YBHHTXGbjIAfEA2gjO-wca2rcId9fD9bzjp_-SFAMSM_5059cOebAMM652s4_2csH-zxx1jrzJRbW2JciZzBKAZ0SFwuX7JfcWFSDQFVax3dHxrAlMDIQ9edDtTBRTnDTVDX_RBEy7L1dyRfaXjr6ngb0oJsoS-YTbO6kXSgOuLJU7Bq3UZeuxsN50ZtTqAuDHwyrzwxOU00nIbYOswWFu3pNHjAeY2PIB_bPjMosDAthRd85QvLJpidC0cpnHb4tmOl3tI88lN7wGvjJeZnzXyTy6-UrFZp9_PxMYMtAlUOSqEEQnMdBnSo0TOf4H7c17GndWvKOcSX229ftYqS0ihcY3U5CtUHLfYPcT44VEv0MiOoTXZPfzwVWZZcwl14xhfD_c35tr21p-PbAJEHlu4e7bSQ5eqxfcTDzPR2_qKmDZk_sc-pS63161EVIhFdH3ggtRABoJXIuvbb4zwFEDF9TncA66R_Bgd5Cvs9Av3bE8o93Ye0bVsDJYuwLEbMlBdIt51tHG79hxlpVzbvXo85cm8TWf4JwZCKuSH5rbLWW9c__gWH50bYlPrhYloL-rVMXpEuifaxseTZSFfEkJig4G1WGMZc7l6VD2vaSLL2L1DKSTIseTZtc0XFFxOR_jJ3Zdih0znaS4UZMk92yVcUCTZTenZigKRuxdR8hCY06IeNyQMnekQIFtbo411Or_m78ISKSlc3kj_cP4g6lZYahS9kSok5TAf3mxHxoRdcakG7Y_SD5_KdDjj4Ez6EIiTLCJUGnMyFa-13lmjgdIbyovo-88E3HaCWzyXpizERR6xm7aNNBRAMD87tSlxz0iiQ_RdK3_DR8mHyLiyg2j4RAlO4CHh1iF1BJub-UJ1M3EfrpgMmTg4DXTwwfG2ViqHqLJadIcDz1y8eLxeTEH-uH77FnYN0XnaqC98yDn59Fth-gEGZGxcvZDZY_9187-QzAjGbPt6iKJ0T77XCfdiEOTP471C8X8-LeBeDqkM482PBmmgnpt9u0VkR1nP5lpDK4DdQ3PjITRcxMSc-Kfmy6xLvMOA7y4zXFbu0z7YAcXBi54wZ55K5jA8eUdKlPg4sWdzk06NZflmklmeJbNri8428NU_sOkbwrN9zkOoZrUxva0PfvdC5i6lXGCPytubY6z2HoXOY7i6UCkbJDR6zFq0auUerLAwB5Yej9NKaoutJVxR4u9yVpko2dCGy-RLLo9reMAWte3_D8kzEE-pSmX3JRFwCRSShJgN-KNhBsjIHXaGTe3I2YO6Sb2ZprsV4cxK-dpxN5GxZiTqMRjzBUO-R9FRlBTWogyWZkrlYxDPbEV2XAWi959bWn_A8AVKgkU2pOoSBEtE19ERatP7SUXZCfsBvO2N-DOdZ-rB6nSddoz9zBoonG5hMnZKRdUc6Un5D2LgYwvMJ0N59l5arQ-aVKvHmdd9KR-I-pmWBESrx1r8js0Blf27YxTzA259b_M6HzsnjAedFfD9e7_MR1XXCANexBpaRy3GHXrEoq2XDHRL8RPzC_WmfubfnyNjvIG73Q4PzIw8pV2OP-6a8j8bLg0Sf2IfriBiLuoHCPsWHLcKK5_DcUrZXABbBZ6A9quFefdHiXZfKu4tT4_4BDO0DEqlOJg9cYr1wl0RPVxDbsKZo5Lv6JBXhduDDZeiG9_Vod8aDpUkezeHYPJtkBIxhRY5wvK_PB8Ww0f9RRj1xZyYzj7-s65Hr4kNFMZXJbI6YR8NzuzPX8lNtDk", "N": "CENTRO VECINAL", "TIPO DE INMUEBLE": "PROPIO" }, "geometry": { "type": "Point", "coordinates": [ -64.243462, -31.405719 ] } },
{ "type": "Feature", "properties": { "Name": "CENTRO VECINAL MAFEKIN", "TIPO_DE_INSTITUCI__N": "CENTRO VECINAL", "CPC": "COLON", "SECCIONAL": 11, "CIRCUITO": "11F", "DIRECCION": "JOSÉ MIGUEL DEL PORTILLO N° 5469", "TIPO_DE_INMUEBLE": "PROPIO", "gx_media_links": null, "N": "CENTRO VECINAL", "TIPO DE INMUEBLE": "PROPIO" }, "geometry": { "type": "Point", "coordinates": [ -64.256714, -31.401758 ] } },
{ "type": "Feature", "properties": { "Name": "CENTRO VECINAL ALTO ALBERDI Y ROQUE SAENZ PEÑA", "TIPO_DE_INSTITUCI__N": "CENTRO VECINAL", "CPC": "COLON", "SECCIONAL": 11, "CIRCUITO": "11A", "DIRECCION": "ESPORA N° 512", "TIPO_DE_INMUEBLE": "COMODATO MUNICIPAL", "gx_media_links": null, "N": "CENTRO VECINAL", "TIPO DE INMUEBLE": "COMODATO MUNICIPAL" }, "geometry": { "type": "Point", "coordinates": [ -64.221634, -31.412148 ] } },
{ "type": "Feature", "properties": { "Name": "CENTRO VECINAL ALTO ALBERDI Y LA TOMA", "TIPO_DE_INSTITUCI__N": "CENTRO VECINAL", "CPC": "COLON", "SECCIONAL": 11, "CIRCUITO": "11A", "DIRECCION": "OLEGARIO CORREA N° 165", "TIPO_DE_INMUEBLE": "COMODATO MUNICIPAL", "gx_media_links": null, "N": "CENTRO VECINAL", "TIPO DE INMUEBLE": "COMODATO MUNICIPAL" }, "geometry": { "type": "Point", "coordinates": [ -64.21512, -31.40817 ] } },
{ "type": "Feature", "properties": { "Name": "CENTRO VECINAL QUEBRADA DE LAS ROSAS", "TIPO_DE_INSTITUCI__N": "CENTRO VECINAL", "CPC": "COLON", "SECCIONAL": 11, "CIRCUITO": "11H", "DIRECCION": "9 DE JULIO N° 5549", "TIPO_DE_INMUEBLE": "PROPIO", "gx_media_links": null, "N": "CENTRO VECINAL", "TIPO DE INMUEBLE": "PROPIO" }, "geometry": { "type": "Point", "coordinates": [ -64.24187, -31.396725 ] } },
{ "type": "Feature", "properties": { "Name": "CENTRO VECINAL UNION TRANVIARIOS", "TIPO_DE_INSTITUCI__N": "CENTRO VECINAL", "CPC": "COLON", "SECCIONAL": 11, "CIRCUITO": "11J", "DIRECCION": "GUILLERMO REYNA Nº 3441 ESQ. A. PEREYRA", "TIPO_DE_INMUEBLE": "COMODATO MUNICIPAL", "gx_media_links": null, "N": "CENTRO VECINAL", "TIPO DE INMUEBLE": "COMODATO MUNICIPAL" }, "geometry": { "type": "Point", "coordinates": [ -64.228111, -31.407142 ] } },
{ "type": "Feature", "properties": { "Name": "CENTRO VECINAL GRAL LAMADRID Y ANEXO LAS PALMAS", "TIPO_DE_INSTITUCI__N": "CENTRO VECINAL", "CPC": "COLON", "SECCIONAL": 11, "CIRCUITO": "11I", "DIRECCION": "ZELARAYAN N° 824", "TIPO_DE_INMUEBLE": "COMODATO MUNICIPAL", "gx_media_links": null, "N": "CENTRO VECINAL", "TIPO DE INMUEBLE": "COMODATO MUNICIPAL" }, "geometry": { "type": "Point", "coordinates": [ -64.236259, -31.413992 ] } },
{ "type": "Feature", "properties": { "Name": "CENTRO VECINAL ESCOBAR Y OMBU ", "TIPO_DE_INSTITUCI__N": "CENTRO VECINAL", "CPC": "COLON", "SECCIONAL": 9, "CIRCUITO": "9", "DIRECCION": "GATO Y MANCHA N° 1457", "TIPO_DE_INMUEBLE": "COMODATO MUNICIPAL", "gx_media_links": null, "N": "CENTRO VECINAL", "TIPO DE INMUEBLE": "COMODATO MUNICIPAL" }, "geometry": { "type": "Point", "coordinates": [ -64.219067, -31.389392 ] } },
{ "type": "Feature", "properties": { "Name": "CENTRO VECINAL CHATEAU CARRERAS", "TIPO_DE_INSTITUCI__N": "CENTRO VECINAL", "CPC": "COLON", "SECCIONAL": 11, "CIRCUITO": "11H", "DIRECCION": "BOYERO N° 511", "TIPO_DE_INMUEBLE": "COMODATO MUNICIPAL", "gx_media_links": null, "N": "CENTRO VECINAL", "TIPO DE INMUEBLE": "COMODATO MUNICIPAL" }, "geometry": { "type": "Point", "coordinates": [ -64.258878, -31.385787 ] } },
{ "type": "Feature", "properties": { "Name": "CENTRO VECINAL VILLA PAEZ", "TIPO_DE_INSTITUCI__N": "CENTRO VECINAL", "CPC": "COLON", "SECCIONAL": 11, "CIRCUITO": "11A", "DIRECCION": "SILVESTRE REMONDA N° 710", "TIPO_DE_INMUEBLE": "COMODATO MUNICIPAL", "gx_media_links": null, "N": "CENTRO VECINAL", "TIPO DE INMUEBLE": "COMODATO MUNICIPAL" }, "geometry": { "type": "Point", "coordinates": [ -64.208241, -31.400199 ] } },
{ "type": "Feature", "properties": { "Name": "CENTRO VECINAL VILLA SIBURU", "TIPO_DE_INSTITUCI__N": "CENTRO VECINAL", "CPC": "COLON", "SECCIONAL": 11, "CIRCUITO": "11K", "DIRECCION": "CLODOMIRO ARZAC N° 526", "TIPO_DE_INMUEBLE": "PROPIO", "gx_media_links": null, "N": "CENTRO VECINAL", "TIPO DE INMUEBLE": "PROPIO" }, "geometry": { "type": "Point", "coordinates": [ -64.227706, -31.396193 ] } },
{ "type": "Feature", "properties": { "Name": "CENTRO VECINAL PARQUE DON BOSCO", "TIPO_DE_INSTITUCI__N": "COMISION DE VECINOS", "CPC": "COLON", "SECCIONAL": 11, "CIRCUITO": "11B", "DIRECCION": "PABLO ANDIZONE N° 7006", "TIPO_DE_INMUEBLE": "COMODATO MUNICIPAL", "gx_media_links": null, "N": "COMISION DE VECINOS", "TIPO DE INMUEBLE": "COMODATO MUNICIPAL" }, "geometry": { "type": "Point", "coordinates": [ -64.274298, -31.387601 ] } },
{ "type": "Feature", "properties": { "Name": "COMISION DE VECINOS AMPLIACIÓN LOS ROBLES", "TIPO_DE_INSTITUCI__N": "COMISION DE VECINOS", "CPC": "COLÓN", "SECCIONAL": 11, "CIRCUITO": "11F", "DIRECCION": "JOSE MIGUEL DEL PORTILLO Nº 6100 ESQ GUILLERMO LEWIS", "TIPO_DE_INMUEBLE": "COMODATO MUNICIPAL EN TRAMITE", "gx_media_links": null, "N": "COMISION DE VECINOS", "TIPO DE INMUEBLE": "COMODATO MUNICIPAL EN TRAMITE" }, "geometry": { "type": "Point", "coordinates": [ -64.263353, -31.398418 ] } },
{ "type": "Feature", "properties": { "Name": "CENTRO VECINAL SAN IGNACIO", "TIPO_DE_INSTITUCI__N": "CENTRO VECINAL", "CPC": "COLÓN", "SECCIONAL": 11, "CIRCUITO": "11K", "DIRECCION": "RIOJA ESQ. FIGUEROA", "TIPO_DE_INMUEBLE": "COMODATO MUNICIPAL", "gx_media_links": null, "N": "CENTRO VECINAL", "TIPO DE INMUEBLE": "COMODATO MUNICIPAL" }, "geometry": { "type": "Point", "coordinates": [ -64.248549, -31.390595 ] } },
{ "type": "Feature", "properties": { "Name": "CENTRO VECINAL LOS ROBLES", "TIPO_DE_INSTITUCI__N": "CENTRO VECINAL", "CPC": "COLÓN", "SECCIONAL": 11, "CIRCUITO": "11F", "DIRECCION": "DOCENTES ARGENTINOS ESQUINA RAUL FERNÁNDEZ", "TIPO_DE_INMUEBLE": "COMODATO MUNICIPAL", "gx_media_links": null, "N": "CENTRO VECINAL", "TIPO DE INMUEBLE": "COMODATO MUNICIPAL" }, "geometry": { "type": "Point", "coordinates": [ -64.262712, -31.402628 ] } },
{ "type": "Feature", "properties": { "Name": "CENTRO VECINAL SARMIENTO", "TIPO_DE_INSTITUCI__N": "CENTRO VECINAL", "CPC": "EMPALME", "SECCIONAL": 12, "CIRCUITO": "12B", "DIRECCION": "SARGENTO CABRAL N° 1960", "TIPO_DE_INMUEBLE": "COMODATO MUNICIPAL", "gx_media_links": null, "N": "CENTRO VECINAL", "TIPO DE INMUEBLE": "COMODATO MUNICIPAL" }, "geometry": { "type": "Point", "coordinates": [ -64.151769, -31.431803 ] } },
{ "type": "Feature", "properties": { "Name": "CENTRO VECINAL PRIMERO DE MAYO", "TIPO_DE_INSTITUCI__N": "CENTRO VECINAL", "CPC": "EMPALME", "SECCIONAL": 5, "CIRCUITO": "5C", "DIRECCION": "ARROYO MELITON N° 5428", "TIPO_DE_INMUEBLE": "PROPIO", "gx_media_links": null, "N": "CENTRO VECINAL", "TIPO DE INMUEBLE": "PROPIO" }, "geometry": { "type": "Point", "coordinates": [ -64.116359, -31.43301 ] } },
{ "type": "Feature", "properties": { "Name": "CENTRO VECINAL FERROVIARIO MITRE", "TIPO_DE_INSTITUCI__N": "CENTRO VECINAL", "CPC": "EMPALME", "SECCIONAL": 12, "CIRCUITO": "12D", "DIRECCION": "17 DE JULIO N° 3960", "TIPO_DE_INMUEBLE": "COMODATO PROVINCIAL", "gx_media_links": null, "N": "CENTRO VECINAL", "TIPO DE INMUEBLE": "COMODATO PROVINCIAL" }, "geometry": { "type": "Point", "coordinates": [ -64.135983, -31.434323 ] } },
{ "type": "Feature", "properties": { "Name": "CENTRO VECINAL LOS SAUCES", "TIPO_DE_INSTITUCI__N": "CENTRO VECINAL", "CPC": "EMPALME", "SECCIONAL": 12, "CIRCUITO": "12", "DIRECCION": "LOS ESPINILLOS ESQ. LOS QUEBRACHOS", "TIPO_DE_INMUEBLE": "COMODATO MUNICIPAL", "gx_media_links": null, "N": "CENTRO VECINAL", "TIPO DE INMUEBLE": "COMODATO MUNICIPAL" }, "geometry": { "type": "Point", "coordinates": [ -64.099238, -31.462435 ] } },
{ "type": "Feature", "properties": { "Name": "CENTRO VECINAL LOS EUCALIPTOS", "TIPO_DE_INSTITUCI__N": "CENTRO VECINAL", "CPC": "EMPALME", "SECCIONAL": 12, "CIRCUITO": "12G", "DIRECCION": "DESCARTES ESQ. FARADAY", "TIPO_DE_INMUEBLE": "COMODATO MUNICIPAL", "gx_media_links": null, "N": "CENTRO VECINAL", "TIPO DE INMUEBLE": "COMODATO MUNICIPAL" }, "geometry": { "type": "Point", "coordinates": [ -64.087832, -31.467362 ] } },
{ "type": "Feature", "properties": { "Name": "CENTRO VECINAL SAN LORENZO SUR", "TIPO_DE_INSTITUCI__N": "CENTRO VECINAL", "CPC": "EMPALME", "SECCIONAL": 12, "CIRCUITO": "12", "DIRECCION": "DELFIN HUERGO N° 4500", "TIPO_DE_INMUEBLE": "COMODATO MUNICIPAL EN TRAMITE", "gx_media_links": null, "N": "CENTRO VECINAL", "TIPO DE INMUEBLE": "COMODATO MUNICIPAL EN TRAMITE" }, "geometry": { "type": "Point", "coordinates": [ -64.111989, -31.454783 ] } },
{ "type": "Feature", "properties": { "Name": "CENTRO VECINAL EMPALME Y AMPLIACION EMPALME", "TIPO_DE_INSTITUCI__N": "CENTRO VECINAL", "CPC": "EMPALME", "SECCIONAL": 5, "CIRCUITO": "5C", "DIRECCION": "PASCANAS N° 4348 ESQ. GUANDACOL", "TIPO_DE_INMUEBLE": "USURPACIÓN PARCIAL", "gx_media_links": null, "N": "CENTRO VECINAL", "TIPO DE INMUEBLE": "USURPACIÓN PARCIAL" }, "geometry": { "type": "Point", "coordinates": [ -64.127144, -31.433078 ] } },
{ "type": "Feature", "properties": { "Name": "CENTRO VECINAL EMPALME CASA DE EMPLEADOS Y OBREROS", "TIPO_DE_INSTITUCI__N": "CENTRO VECINAL", "CPC": "EMPALME", "SECCIONAL": 5, "CIRCUITO": "5C", "DIRECCION": "ANDALGALA N° 4751 ESQ. SOTO", "TIPO_DE_INMUEBLE": "PROPIO", "gx_media_links": null, "N": "CENTRO VECINAL", "TIPO DE INMUEBLE": "PROPIO" }, "geometry": { "type": "Point", "coordinates": [ -64.125136, -31.438355 ] } },
{ "type": "Feature", "properties": { "Name": "CENTRO VECINAL VILLA BUSTOS", "TIPO_DE_INSTITUCI__N": "CENTRO VECINAL", "CPC": "EMPALME", "SECCIONAL": 5, "CIRCUITO": "5E", "DIRECCION": "TALACASTO N° 5678", "TIPO_DE_INMUEBLE": "PROPIO", "gx_media_links": null, "N": "CENTRO VECINAL", "TIPO DE INMUEBLE": "PROPIO" }, "geometry": { "type": "Point", "coordinates": [ -64.1127307, -31.436208 ] } },
{ "type": "Feature", "properties": { "Name": "CENTRO VECINAL BETANIA", "TIPO_DE_INSTITUCI__N": "CENTRO VECINAL", "CPC": "EMPALME", "SECCIONAL": 12, "CIRCUITO": "12", "DIRECCION": "ANTONIO LAVOISIER N° 5035 ESQ. LAURE", "TIPO_DE_INMUEBLE": "COMODATO MUNICIPAL VIGENTE", "gx_media_links": null, "N": "CENTRO VECINAL", "TIPO DE INMUEBLE": "COMODATO MUNICIPAL VIGENTE" }, "geometry": { "type": "Point", "coordinates": [ -64.093449, -31.458945 ] } },
{ "type": "Feature", "properties": { "Name": "CENTRO VECINAL ITUZAINGO ANEXO", "TIPO_DE_INSTITUCI__N": "CENTRO VECINAL", "CPC": "EMPALME", "SECCIONAL": 12, "CIRCUITO": "12G", "DIRECCION": "GABRIEL LIPPMAN N° 5600 ESQ. FULTON", "TIPO_DE_INMUEBLE": "COMODATO MUNICIPAL", "gx_media_links": null, "N": "CENTRO VECINAL", "TIPO DE INMUEBLE": "COMODATO MUNICIPAL" }, "geometry": { "type": "Point", "coordinates": [ -64.080938, -31.46602 ] } },
{ "type": "Feature", "properties": { "Name": "CENTRO VECINAL CRISOL NORTE E INDUSTRIAL ESTE", "TIPO_DE_INSTITUCI__N": "CENTRO VECINAL", "CPC": "EMPALME", "SECCIONAL": 12, "CIRCUITO": "12B", "DIRECCION": "PARDOS Y MORENOS N° 1902", "TIPO_DE_INMUEBLE": "COMODATO MUNICIPAL", "gx_media_links": null, "N": "CENTRO VECINAL", "TIPO DE INMUEBLE": "COMODATO MUNICIPAL" }, "geometry": { "type": "Point", "coordinates": [ -64.166324, -31.427458 ] } },
{ "type": "Feature", "properties": { "Name": "CENTRO VECINAL ITUZAINGO", "TIPO_DE_INSTITUCI__N": "CENTRO VECINAL", "CPC": "EMPALME", "SECCIONAL": 12, "CIRCUITO": "12G", "DIRECCION": "MIGUEL ESTEVEZ SAGUI N° 6950", "TIPO_DE_INMUEBLE": "COMODATO MUNICIPAL", "gx_media_links": null, "N": "CENTRO VECINAL", "TIPO DE INMUEBLE": "COMODATO MUNICIPAL" }, "geometry": { "type": "Point", "coordinates": [ -64.093035, -31.463434 ] } },
{ "type": "Feature", "properties": { "Name": "CENTRO VECINAL VILLA REVOL ANEXO", "TIPO_DE_INSTITUCI__N": "CENTRO VECINAL", "CPC": "EMPALME", "SECCIONAL": 4, "CIRCUITO": "4B", "DIRECCION": "LA CORUÑA N° 1165", "TIPO_DE_INMUEBLE": "PROPIO", "gx_media_links": null, "N": "CENTRO VECINAL", "TIPO DE INMUEBLE": "PROPIO" }, "geometry": { "type": "Point", "coordinates": [ -64.170075, -31.433143 ] } },
{ "type": "Feature", "properties": { "Name": "CENTRO VECINAL PARQUE DEAN FUNES", "TIPO_DE_INSTITUCI__N": "CENTRO VECINAL", "CPC": "EMPALME", "SECCIONAL": 5, "CIRCUITO": "5B", "DIRECCION": "JOSE DARRAGUEIRA N° 5246", "TIPO_DE_INMUEBLE": "COMODATO MUNICIPAL VIGENTE", "gx_media_links": null, "N": "CENTRO VECINAL", "TIPO DE INMUEBLE": "COMODATO MUNICIPAL VIGENTE" }, "geometry": { "type": "Point", "coordinates": [ -64.117829, -31.444535 ] } },
{ "type": "Feature", "properties": { "Name": "CENTRO VECINAL SAN JAVIER", "TIPO_DE_INSTITUCI__N": "CENTRO VECINAL", "CPC": "EMPALME", "SECCIONAL": 12, "CIRCUITO": "12", "DIRECCION": "TORCUATO WRMUTH N° 5095 ESQ. CAMINO CAPILLA DE LOS REMEDIOS", "TIPO_DE_INMUEBLE": "COMODATO MUNICIPAL", "gx_media_links": null, "N": "CENTRO VECINAL", "TIPO DE INMUEBLE": "COMODATO MUNICIPAL" }, "geometry": { "type": "Point", "coordinates": [ -64.101977, -31.459919 ] } },
{ "type": "Feature", "properties": { "Name": "CENTRO VECINAL NICOLAS AVELLANEDA", "TIPO_DE_INSTITUCI__N": "CENTRO VECINAL", "CPC": "EMPALME", "SECCIONAL": 12, "CIRCUITO": "12", "DIRECCION": "MARTIN IBARROLA N° 5251", "TIPO_DE_INMUEBLE": "PROPIO", "gx_media_links": null, "N": "CENTRO VECINAL", "TIPO DE INMUEBLE": "PROPIO" }, "geometry": { "type": "Point", "coordinates": [ -64.102325, -31.461548 ] } },
{ "type": "Feature", "properties": { "Name": "CENTRO VECINAL ALMIRANTE BROWN", "TIPO_DE_INSTITUCI__N": "CENTRO VECINAL", "CPC": "EMPALME", "SECCIONAL": 12, "CIRCUITO": "12", "DIRECCION": "JULIO MENDEZ N° 5105 ESQ. FRANCISCO MEDINA", "TIPO_DE_INMUEBLE": "COMODATO MUNICIPAL EN TRAMITE", "gx_media_links": null, "N": "CENTRO VECINAL", "TIPO DE INMUEBLE": "COMODATO MUNICIPAL EN TRAMITE" }, "geometry": { "type": "Point", "coordinates": [ -64.091333, -31.459972 ] } },
{ "type": "Feature", "properties": { "Name": "CENTRO VECINAL CRISOL SUD Y NUEVA CORDOBA ANEXO", "TIPO_DE_INSTITUCI__N": "CENTRO VECINAL", "CPC": "EMPALME", "SECCIONAL": 12, "CIRCUITO": "12B", "DIRECCION": "PASAJE OLIVA N° 1822", "TIPO_DE_INMUEBLE": "COMODATO MUNICIPAL VIGENTE", "gx_media_links": null, "N": "CENTRO VECINAL", "TIPO DE INMUEBLE": "COMODATO MUNICIPAL VIGENTE" }, "geometry": { "type": "Point", "coordinates": [ -64.162141, -31.440138 ] } },
{ "type": "Feature", "properties": { "Name": "CENTRO VECINAL RIVADAVIA ", "TIPO_DE_INSTITUCI__N": "CENTRO VECINAL", "CPC": "EMPALME", "SECCIONAL": 12, "CIRCUITO": "12B", "DIRECCION": "RAMON OCAMPO N° 1971", "TIPO_DE_INMUEBLE": "PROPIO", "gx_media_links": null, "N": "CENTRO VECINAL", "TIPO DE INMUEBLE": "PROPIO" }, "geometry": { "type": "Point", "coordinates": [ -64.147287, -31.432192 ] } },
{ "type": "Feature", "properties": { "Name": "CENTRO VECINAL ALBERDI", "TIPO_DE_INSTITUCI__N": "CENTRO VECINAL", "CPC": "MERCADO DE LA CIUDAD", "SECCIONAL": 3, "CIRCUITO": "3", "DIRECCION": "PASAJE CRISTOBAL DE AGUILAR N° 1890", "TIPO_DE_INMUEBLE": "COMODATO MUNICIPAL", "gx_media_links": null, "N": "CENTRO VECINAL", "TIPO DE INMUEBLE": "COMODATO MUNICIPAL" }, "geometry": { "type": "Point", "coordinates": [ -64.208159, -31.406753 ] } },
{ "type": "Feature", "properties": { "Name": "CENTRO VECINAL QUINTAS DE SANTA ANA", "TIPO_DE_INSTITUCI__N": "CENTRO VECINAL", "CPC": "MERCADO DE LA CIUDAD", "SECCIONAL": 3, "CIRCUITO": "3", "DIRECCION": "CASEROS ESQ. LA NORIA", "TIPO_DE_INMUEBLE": "PROPIO", "gx_media_links": null, "N": "CENTRO VECINAL", "TIPO DE INMUEBLE": "PROPIO" }, "geometry": { "type": "Point", "coordinates": [ -64.201905, -31.413092 ] } },
{ "type": "Feature", "properties": { "Name": "CENTRO VECINAL OBSERVATORIO Y BAJADA SAN ROQUE", "TIPO_DE_INSTITUCI__N": "CENTRO VECINAL", "CPC": "MERCADO DE LA CIUDAD", "SECCIONAL": 3, "CIRCUITO": "3", "DIRECCION": "PARAGUAY N° 1070 ESQ. DOMINGO FUNES", "TIPO_DE_INMUEBLE": "COMODATO MUNICIPAL", "gx_media_links": null, "N": "CENTRO VECINAL", "TIPO DE INMUEBLE": "COMODATO MUNICIPAL" }, "geometry": { "type": "Point", "coordinates": [ -64.200368, -31.411276 ] } },
{ "type": "Feature", "properties": { "Name": "CENTRO VECINAL CUPANI", "TIPO_DE_INSTITUCI__N": "CENTRO VECINAL", "CPC": "MERCADO DE LA CIUDAD", "SECCIONAL": 10, "CIRCUITO": "10G", "DIRECCION": "ISAAC ALBENIZ N° 1450", "TIPO_DE_INMUEBLE": "COMODATO MUNICIPAL", "gx_media_links": null, "N": "CENTRO VECINAL", "TIPO DE INMUEBLE": "COMODATO MUNICIPAL" }, "geometry": { "type": "Point", "coordinates": [ -64.207852, -31.423708 ] } },
{ "type": "Feature", "properties": { "Name": "CENTRO VECINAL PROVIDENCIA", "TIPO_DE_INSTITUCI__N": "CENTRO VECINAL", "CPC": "MERCADO DE LA CIUDAD", "SECCIONAL": 9, "CIRCUITO": "9E", "DIRECCION": "HUALFIN N° 1091", "TIPO_DE_INMUEBLE": "COMODATO MUNICIPAL", "gx_media_links": null, "N": "CENTRO VECINAL", "TIPO DE INMUEBLE": "COMODATO MUNICIPAL" }, "geometry": { "type": "Point", "coordinates": [ -64.201088, -31.397583 ] } },
{ "type": "Feature", "properties": { "Name": "COMISION DE VECINOS DUCASSE", "TIPO_DE_INSTITUCI__N": "COMISION DE VECINOS ", "CPC": "MERCADO DE LA CIUDAD", "SECCIONAL": 9, "CIRCUITO": "9E", "DIRECCION": "FRAGUEIRO N°955", "TIPO_DE_INMUEBLE": "USURPADO ", "gx_media_links": null, "N": "COMISION DE VECINOS", "TIPO DE INMUEBLE": "USURPADO" }, "geometry": { "type": "Point", "coordinates": [ -64.18889, -31.40362 ] } },
{ "type": "Feature", "properties": { "Name": "CENTRO VECINAL SAN MARTIN", "TIPO_DE_INSTITUCI__N": "CENTRO VECINAL", "CPC": "MONSEÑOR PABLO CABRERA", "SECCIONAL": 9, "CIRCUITO": "9F", "DIRECCION": "PASO DE USPALLATA N° 1848", "TIPO_DE_INMUEBLE": "COMODATO MUNICIPAL EN TRAMITE", "gx_media_links": null, "N": "CENTRO VECINAL", "TIPO DE INMUEBLE": "COMODATO MUNICIPAL EN TRAMITE" }, "geometry": { "type": "Point", "coordinates": [ -64.200694, -31.387453 ] } },
{ "type": "Feature", "properties": { "Name": "CENTRO VECINAL ALTO VERDE Y ALTOS DE VILLA CABRERA", "TIPO_DE_INSTITUCI__N": "CENTRO VECINAL", "CPC": "MONSEÑOR PABLO CABRERA", "SECCIONAL": 9, "CIRCUITO": "9A", "DIRECCION": "LOS JAGÜELES N° 3197", "TIPO_DE_INMUEBLE": "COMODATO MUNICIPAL", "gx_media_links": null, "N": "CENTRO VECINAL", "TIPO DE INMUEBLE": "COMODATO MUNICIPAL" }, "geometry": { "type": "Point", "coordinates": [ -64.219542, -31.371864 ] } },
{ "type": "Feature", "properties": { "Name": "CENTRO VECINAL LOS PARAISOS", "TIPO_DE_INSTITUCI__N": "CENTRO VECINAL", "CPC": "MONSEÑOR PABLO CABRERA", "SECCIONAL": 9, "CIRCUITO": "9C", "DIRECCION": "FRANCISCO VALLES N° 2617 ESQ. LOPE DE VEGA", "TIPO_DE_INMUEBLE": "PROPIO", "gx_media_links": null, "N": "CENTRO VECINAL", "TIPO DE INMUEBLE": "PROPIO" }, "geometry": { "type": "Point", "coordinates": [ -64.195708, -31.382759 ] } },
{ "type": "Feature", "properties": { "Name": "CENTRO VECINAL SARGENTO CABRAL", "TIPO_DE_INSTITUCI__N": "CENTRO VECINAL", "CPC": "MONSEÑOR PABLO CABRERA", "SECCIONAL": 9, "CIRCUITO": "9C", "DIRECCION": "FRANCISCO SUAREZ N°3191", "TIPO_DE_INMUEBLE": "COMODATO MUNICIPAL", "gx_media_links": null, "N": "CENTRO VECINAL", "TIPO DE INMUEBLE": "COMODATO MUNICIPAL" }, "geometry": { "type": "Point", "coordinates": [ -64.194918, -31.375147 ] } },
{ "type": "Feature", "properties": { "Name": "CENTRO VECINAL LA FRANCE", "TIPO_DE_INSTITUCI__N": "CENTRO VECINAL", "CPC": "MONSEÑOR PABLO CABRERA", "SECCIONAL": 9, "CIRCUITO": "9A", "DIRECCION": "MANUEL ORIBE N° 2593", "TIPO_DE_INMUEBLE": "COMODATO MUNICIPAL", "gx_media_links": null, "N": "CENTRO VECINAL", "TIPO DE INMUEBLE": "COMODATO MUNICIPAL" }, "geometry": { "type": "Point", "coordinates": [ -64.207526, -31.373948 ] } },
{ "type": "Feature", "properties": { "Name": "CENTRO VECINAL MARQUES ANEXO", "TIPO_DE_INSTITUCI__N": "CENTRO VECINAL", "CPC": "MONSEÑOR PABLO CABRERA", "SECCIONAL": 7, "CIRCUITO": "7E", "DIRECCION": "DEL MOLINO ESQ. FRANCISCO VALLES", "TIPO_DE_INMUEBLE": "COMODATO MUNICIPAL", "gx_media_links": null, "N": "CENTRO VECINAL", "TIPO DE INMUEBLE": "COMODATO MUNICIPAL" }, "geometry": { "type": "Point", "coordinates": [ -64.195175, -31.371263 ] } },
{ "type": "Feature", "properties": { "Name": "CENTRO VECINAL LAS MARGARITAS", "TIPO_DE_INSTITUCI__N": "CENTRO VECINAL", "CPC": "MONSEÑOR PABLO CABRERA", "SECCIONAL": 9, "CIRCUITO": "9B", "DIRECCION": "HERMINIO MALVINO N° 2728", "TIPO_DE_INMUEBLE": "COMODATO MUNICIPAL EN TRAMITE", "gx_media_links": null, "N": "CENTRO VECINAL", "TIPO DE INMUEBLE": "COMODATO MUNICIPAL EN TRAMITE" }, "geometry": { "type": "Point", "coordinates": [ -64.210753, -31.377419 ] } },
{ "type": "Feature", "properties": { "Name": "CENTRO VECINAL GRANADERO PRINGLES", "TIPO_DE_INSTITUCI__N": "CENTRO VECINAL", "CPC": "MONSEÑOR PABLO CABRERA", "SECCIONAL": 9, "CIRCUITO": "9C", "DIRECCION": "ALBERTO BERNIS N° 3275", "TIPO_DE_INMUEBLE": "COMODATO MUNICIPAL VIGENTE", "gx_media_links": null, "N": "CENTRO VECINAL", "TIPO DE INMUEBLE": "COMODATO MUNICIPAL VIGENTE" }, "geometry": { "type": "Point", "coordinates": [ -64.198308, -31.375037 ] } },
{ "type": "Feature", "properties": { "Name": "CENTRO VECINAL MARQUÉS DE SOBREMONTE", "TIPO_DE_INSTITUCI__N": "CENTRO VECINAL", "CPC": "MONSEÑOR PABLO CABRERA", "SECCIONAL": 7, "CIRCUITO": "7E", "DIRECCION": "ALONSO DE UBEDA N° 526", "TIPO_DE_INMUEBLE": "COMODATO MUNICIPAL", "gx_media_links": null, "N": "CENTRO VECINAL", "TIPO DE INMUEBLE": "COMODATO MUNICIPAL" }, "geometry": { "type": "Point", "coordinates": [ -64.194974, -31.362851 ] } },
{ "type": "Feature", "properties": { "Name": "CENTRO VECINAL ZUMARAN Y SAN MARTIN NORTE", "TIPO_DE_INSTITUCI__N": "CENTRO VECINAL", "CPC": "MONSEÑOR PABLO CABRERA", "SECCIONAL": 9, "CIRCUITO": "9C", "DIRECCION": "AV. ZARATE N° 2048", "TIPO_DE_INMUEBLE": "PROPIO", "gx_media_links": null, "N": "CENTRO VECINAL", "TIPO DE INMUEBLE": "PROPIO" }, "geometry": { "type": "Point", "coordinates": [ -64.200969, -31.37588 ] } },
{ "type": "Feature", "properties": { "Name": "CENTRO VECINAL LAS MAGNOLIAS", "TIPO_DE_INSTITUCI__N": "CENTRO VECINAL", "CPC": "MONSEÑOR PABLO CABRERA", "SECCIONAL": 9, "CIRCUITO": "9D", "DIRECCION": "QINQUELA MARTIN ESQ. ALEJANDRO CASTIÑEIRAS", "TIPO_DE_INMUEBLE": "COMODATO MUNICIPAL", "gx_media_links": null, "N": "CENTRO VECINAL", "TIPO DE INMUEBLE": "COMODATO MUNICIPAL" }, "geometry": { "type": "Point", "coordinates": [ -64.210901, -31.369037 ] } },
{ "type": "Feature", "properties": { "Name": "CENTRO VECINAL REMEDIOS DE ESCALADA", "TIPO_DE_INSTITUCI__N": "CENTRO VECINAL", "CPC": "GUIÑAZU ", "SECCIONAL": 7, "CIRCUITO": "7F", "DIRECCION": "ALICIA MOREAU DE JUSTO N° 6500 ESQ. PUCH DE GÜEMES", "TIPO_DE_INMUEBLE": "COMODATO MUNICIPAL VIGENTE", "gx_media_links": null, "N": "CENTRO VECINAL", "TIPO DE INMUEBLE": "COMODATO MUNICIPAL VIGENTE" }, "geometry": { "type": "Point", "coordinates": [ -64.179323, -31.339292 ] } },
{ "type": "Feature", "properties": { "Name": "CENTRO VECINAL ALICIA RISLER", "TIPO_DE_INSTITUCI__N": "CENTRO VECINAL", "CPC": "GUIÑAZÚ", "SECCIONAL": 7, "CIRCUITO": "7A", "DIRECCION": "DE LA RANCHERA N° 271", "TIPO_DE_INMUEBLE": "PROPIO", "gx_media_links": null, "N": "CENTRO VECINAL", "TIPO DE INMUEBLE": "PROPIO" }, "geometry": { "type": "Point", "coordinates": [ -64.178569, -31.309762 ] } },
{ "type": "Feature", "properties": { "Name": "CENTRO VECINAL JORGE NEWBERY", "TIPO_DE_INSTITUCI__N": "CENTRO VECINAL", "CPC": "GUIÑAZU", "SECCIONAL": 7, "CIRCUITO": "7F", "DIRECCION": "TEODORO FELS N° 5568", "TIPO_DE_INMUEBLE": "COMODATO MUNICIPAL", "gx_media_links": null, "N": "CENTRO VECINAL", "TIPO DE INMUEBLE": "COMODATO MUNICIPAL" }, "geometry": { "type": "Point", "coordinates": [ -64.181038, -31.352209 ] } },
{ "type": "Feature", "properties": { "Name": "COMISION DE VECINOS JERONIMO LUIS DE CABRERA", "TIPO_DE_INSTITUCI__N": "COMISION DE VECINOS", "CPC": "GUIÑAZU", "SECCIONAL": 7, "CIRCUITO": "7F", "DIRECCION": "CAROLA LORENZINI N° 380", "TIPO_DE_INMUEBLE": "COMODATO MUNICIPAL", "gx_media_links": null, "N": "COMISION DE VECINOS", "TIPO DE INMUEBLE": "COMODATO MUNICIPAL" }, "geometry": { "type": "Point", "coordinates": [ -64.18176, -31.355313 ] } },
{ "type": "Feature", "properties": { "Name": "COMISION DE VECINOS EL HORNERO", "TIPO_DE_INSTITUCI__N": "COMISION DE VECINOS", "CPC": "GUIÑAZU", "SECCIONAL": 7, "CIRCUITO": "7F", "DIRECCION": "MANZANA C CASA 1", "TIPO_DE_INMUEBLE": "PROPIO", "gx_media_links": null, "N": "COMISION DE VECINOS", "TIPO DE INMUEBLE": "PROPIO" }, "geometry": { "type": "Point", "coordinates": [ -64.18002, -31.34249 ] } },
{ "type": "Feature", "properties": { "Name": "CENTRO VECINAL PUEYRREDON OESTE", "TIPO_DE_INSTITUCI__N": "CENTRO VECINAL", "CPC": "PUEYRREDÓN", "SECCIONAL": 8, "CIRCUITO": "8B", "DIRECCION": "PADRE LUIS MONTI ESQ. PATRIA", "TIPO_DE_INMUEBLE": "USURPADO", "gx_media_links": null, "N": "CENTRO VECINAL", "TIPO DE INMUEBLE": "USURPADO" }, "geometry": { "type": "Point", "coordinates": [ -64.1615, -31.39864 ] } },
{ "type": "Feature", "properties": { "Name": "CENTRO VECINAL AMPLIACION PALMAR", "TIPO_DE_INSTITUCI__N": "CENTRO VECINAL", "CPC": "PUEYRREDON", "SECCIONAL": 8, "CIRCUITO": "8A", "DIRECCION": "FRANCISCO CHARLEVOIX N° 5852", "TIPO_DE_INMUEBLE": "COMODATO MUNICIPAL VIGENTE", "gx_media_links": null, "N": "CENTRO VECINAL", "TIPO DE INMUEBLE": "COMODATO MUNICIPAL VIGENTE" }, "geometry": { "type": "Point", "coordinates": [ -64.116988, -31.388323 ] } },
{ "type": "Feature", "properties": { "Name": "CENTRO VECINAL GENERAL PAZ", "TIPO_DE_INSTITUCI__N": "CENTRO VECINAL", "CPC": "PUEYRREDÓN", "SECCIONAL": 6, "CIRCUITO": "6C", "DIRECCION": "LIBERTAD N° 1050", "TIPO_DE_INMUEBLE": "COMODATO MUNICIPAL EN TRAMITE", "gx_media_links": null, "N": "CENTRO VECINAL", "TIPO DE INMUEBLE": "COMODATO MUNICIPAL EN TRAMITE" }, "geometry": { "type": "Point", "coordinates": [ -64.170829, -31.409196 ] } },
{ "type": "Feature", "properties": { "Name": "CENTRO VECINAL LOS PINOS", "TIPO_DE_INSTITUCI__N": "CENTRO VECINAL", "CPC": "PUEYRREDON", "SECCIONAL": 8, "CIRCUITO": "8C", "DIRECCION": "PAISAJE GABLE N° 3758", "TIPO_DE_INMUEBLE": "COMODATO MUNICIPAL", "gx_media_links": null, "N": "CENTRO VECINAL", "TIPO DE INMUEBLE": "COMODATO MUNICIPAL" }, "geometry": { "type": "Point", "coordinates": [ -64.14166, -31.391615 ] } },
{ "type": "Feature", "properties": { "Name": "CENTRO VECINAL YOFRE I", "TIPO_DE_INSTITUCI__N": "CENTRO VECINAL", "CPC": "PUEYRREDON", "SECCIONAL": 8, "CIRCUITO": "8C", "DIRECCION": "MARTIN ALLENDE N° 1312 ESQ. COCHABAMBA", "TIPO_DE_INMUEBLE": "COMODATO MUNICIPAL", "gx_media_links": null, "N": "CENTRO VECINAL", "TIPO DE INMUEBLE": "COMODATO MUNICIPAL" }, "geometry": { "type": "Point", "coordinates": [ -64.129448, -31.394364 ] } },
{ "type": "Feature", "properties": { "Name": "CENTRO VECINAL YOFRE SUR", "TIPO_DE_INSTITUCI__N": "CENTRO VECINAL", "CPC": "PUEYRREDON", "SECCIONAL": 8, "CIRCUITO": "8C", "DIRECCION": "SEVERO VACCARO N° 1302", "TIPO_DE_INMUEBLE": "COMODATO MUNICIPAL", "gx_media_links": null, "N": "CENTRO VECINAL", "TIPO DE INMUEBLE": "COMODATO MUNICIPAL" }, "geometry": { "type": "Point", "coordinates": [ -64.13695, -31.394414 ] } },
{ "type": "Feature", "properties": { "Name": "CENTRO VECINAL AMPLIACION PUEYRREDON", "TIPO_DE_INSTITUCI__N": "CENTRO VECINAL", "CPC": "PUEYRREDON", "SECCIONAL": 8, "CIRCUITO": "8B", "DIRECCION": "CHARCAS N° 3520", "TIPO_DE_INMUEBLE": "COMODATO MUNICIPAL VIGENTE", "gx_media_links": null, "N": "CENTRO VECINAL", "TIPO DE INMUEBLE": "COMODATO MUNICIPAL VIGENTE" }, "geometry": { "type": "Point", "coordinates": [ -64.145577, -31.395883 ] } },
{ "type": "Feature", "properties": { "Name": "CENTRO VECINAL PALMAR Y VILLA CLAUDINA", "TIPO_DE_INSTITUCI__N": "CENTRO VECINAL", "CPC": "PUEYRREDÓN", "SECCIONAL": 8, "CIRCUITO": "8A", "DIRECCION": "GOBERNADOR NUÑEZ N° 5413", "TIPO_DE_INMUEBLE": "COMODATO MUNICIPAL", "gx_media_links": null, "N": "CENTRO VECINAL", "TIPO DE INMUEBLE": "COMODATO MUNICIPAL" }, "geometry": { "type": "Point", "coordinates": [ -64.124783, -31.389625 ] } },
{ "type": "Feature", "properties": { "Name": "CENTRO VECINAL LA FLORESTA", "TIPO_DE_INSTITUCI__N": "CENTRO VECINAL", "CPC": "PUEYRREDÓN", "SECCIONAL": 6, "CIRCUITO": "6E", "DIRECCION": "DE LAS ORQUIDEAS N° 9957", "TIPO_DE_INMUEBLE": "PROPIO", "gx_media_links": null, "N": "CENTRO VECINAL", "TIPO DE INMUEBLE": "PROPIO" }, "geometry": { "type": "Point", "coordinates": [ -64.058415, -31.381258 ] } },
{ "type": "Feature", "properties": { "Name": "COMISION DE VECINOS YAPEYU", "TIPO_DE_INSTITUCI__N": "COMISION DE VECINOS", "CPC": "PUEYRREDON", "SECCIONAL": 6, "CIRCUITO": "6F", "DIRECCION": "LORETO N° 40", "TIPO_DE_INMUEBLE": "COMODATO MUNICIPAL", "gx_media_links": null, "N": "COMISION DE VECINOS", "TIPO DE INMUEBLE": "COMODATO MUNICIPAL" }, "geometry": { "type": "Point", "coordinates": [ -64.149901, -31.412197 ] } },
{ "type": "Feature", "properties": { "Name": "CENTRO VECINAL PARQUE DEL ESTE", "TIPO_DE_INSTITUCI__N": "CENTRO VECINAL", "CPC": "PUEYRREDÓN", "SECCIONAL": 6, "CIRCUITO": "6A", "DIRECCION": "BAJADA DE PIEDRA S\/Nº", "TIPO_DE_INMUEBLE": "COMODATO MUNICIPAL", "gx_media_links": null, "N": "CENTRO VECINAL", "TIPO DE INMUEBLE": "COMODATO MUNICIPAL" }, "geometry": { "type": "Point", "coordinates": [ -64.14753, -31.40585 ] } },
{ "type": "Feature", "properties": { "Name": "CENTRO VECINAL JUNIORS", "TIPO_DE_INSTITUCI__N": "CENTRO VECINAL", "CPC": "PUEYRREDÓN", "SECCIONAL": 6, "CIRCUITO": "6D", "DIRECCION": "BAHIA BLANCA Y LOLA MORA", "TIPO_DE_INMUEBLE": "COMODATO MUNICIPAL", "gx_media_links": null, "N": "CENTRO VECINAL", "TIPO DE INMUEBLE": "COMODATO MUNICIPAL" }, "geometry": { "type": "Point", "coordinates": [ -64.17058, -31.41867 ] } },
{ "type": "Feature", "properties": { "Name": "CENTRO VECINAL YOFRE NORTE Y YOFRE H", "TIPO_DE_INSTITUCI__N": "CENTRO VECINAL", "CPC": "RANCAGUA", "SECCIONAL": 13, "CIRCUITO": "13N", "DIRECCION": "JACINTO DE ALTOLAGUIRRE N° 2217", "TIPO_DE_INMUEBLE": "PROPIO", "gx_media_links": null, "N": "CENTRO VECINAL", "TIPO DE INMUEBLE": "PROPIO" }, "geometry": { "type": "Point", "coordinates": [ -64.134331, -31.383123 ] } },
{ "type": "Feature", "properties": { "Name": "CENTRO VECINAL VILLA CORINA", "TIPO_DE_INSTITUCI__N": "CENTRO VECINAL", "CPC": "RANCAGUA", "SECCIONAL": 13, "CIRCUITO": "13H", "DIRECCION": "DIAZ COLODRERO N° 3054", "TIPO_DE_INMUEBLE": "COMODATO MUNICIPAL", "gx_media_links": null, "N": "CENTRO VECINAL", "TIPO DE INMUEBLE": "COMODATO MUNICIPAL" }, "geometry": { "type": "Point", "coordinates": [ -64.144666, -31.374823 ] } },
{ "type": "Feature", "properties": { "Name": "CENTRO VECINAL TALLERES OESTE", "TIPO_DE_INSTITUCI__N": "CENTRO VECINAL", "CPC": "RANCAGUA", "SECCIONAL": 13, "CIRCUITO": "13", "DIRECCION": "PUNTA DEL SAUCE N° 2175", "TIPO_DE_INMUEBLE": "PROPIO", "gx_media_links": null, "N": "CENTRO VECINAL", "TIPO DE INMUEBLE": "PROPIO" }, "geometry": { "type": "Point", "coordinates": [ -64.150113, -31.384998 ] } },
{ "type": "Feature", "properties": { "Name": "CENTRO VECINAL TALLERES ESTE", "TIPO_DE_INSTITUCI__N": "CENTRO VECINAL", "CPC": "RANCAGUA", "SECCIONAL": 13, "CIRCUITO": "13", "DIRECCION": "JUAN XXIII N° 1933", "TIPO_DE_INMUEBLE": "PROPIO", "gx_media_links": null, "N": "CENTRO VECINAL", "TIPO DE INMUEBLE": "PROPIO" }, "geometry": { "type": "Point", "coordinates": [ -64.150422, -31.387849 ] } },
{ "type": "Feature", "properties": { "Name": "CENTRO VECINAL SANTA CLARA DE ASIS", "TIPO_DE_INSTITUCI__N": "CENTRO VECINAL", "CPC": "RANCAGUA", "SECCIONAL": 13, "CIRCUITO": "13F", "DIRECCION": "OSCARIZ Y BEAUMONT N° 2415 ESQ. JOSE DE QUEVEDO", "TIPO_DE_INMUEBLE": "COMODATO MUNICIPAL VIGENTE", "gx_media_links": null, "N": "CENTRO VECINAL", "TIPO DE INMUEBLE": "COMODATO MUNICIPAL VIGENTE" }, "geometry": { "type": "Point", "coordinates": [ -64.141994, -31.382848 ] } },
{ "type": "Feature", "properties": { "Name": "CENTRO VECINAL PATRICIOS ESTE", "TIPO_DE_INSTITUCI__N": "CENTRO VECINAL", "CPC": "RANCAGUA", "SECCIONAL": 13, "CIRCUITO": "13H", "DIRECCION": "J. DONADO ESQ. HEROINAS DE AYOHUMA", "TIPO_DE_INMUEBLE": "COMODATO PROVINCIAL", "gx_media_links": null, "N": "CENTRO VECINAL", "TIPO DE INMUEBLE": "COMODATO PROVINCIAL" }, "geometry": { "type": "Point", "coordinates": [ -64.134938, -31.367056 ] } },
{ "type": "Feature", "properties": { "Name": "CENTRO VECINAL SAN NICOLAS", "TIPO_DE_INSTITUCI__N": "CENTRO VECINAL", "CPC": "RANCAGUA", "SECCIONAL": 13, "CIRCUITO": "13J", "DIRECCION": "PASAJE LUGO N° 1672\/76", "TIPO_DE_INMUEBLE": "PROPIO", "gx_media_links": null, "N": "CENTRO VECINAL", "TIPO DE INMUEBLE": "PROPIO" }, "geometry": { "type": "Point", "coordinates": [ -64.14948, -31.381473 ] } },
{ "type": "Feature", "properties": { "Name": "CENTRO VECINAL PARQUE LICEO SECCION 3", "TIPO_DE_INSTITUCI__N": "CENTRO VECINAL", "CPC": "RANCAGUA", "SECCIONAL": 13, "CIRCUITO": "13G", "DIRECCION": "JUAN LUIS ORREGO ESQ. CONSTACIO C. VIGIL", "TIPO_DE_INMUEBLE": "COMODATO MUNICIPAL", "gx_media_links": null, "N": "CENTRO VECINAL", "TIPO DE INMUEBLE": "COMODATO MUNICIPAL" }, "geometry": { "type": "Point", "coordinates": [ -64.151977, -31.354123 ] } },
{ "type": "Feature", "properties": { "Name": "CENTRO VECINAL NUEVA ITALIA Y VIVERO NORTE", "TIPO_DE_INSTITUCI__N": "CENTRO VECINAL", "CPC": "RANCAGUA", "SECCIONAL": 13, "CIRCUITO": "13F", "DIRECCION": "DR. YUDICELLO N° 1949", "TIPO_DE_INMUEBLE": "PROPIO", "gx_media_links": null, "N": "CENTRO VECINAL", "TIPO DE INMUEBLE": "PROPIO" }, "geometry": { "type": "Point", "coordinates": [ -64.142721, -31.388025 ] } },
{ "type": "Feature", "properties": { "Name": "CENTRO VECINAL QUINTAS DE SAN JORGE", "TIPO_DE_INSTITUCI__N": "CENTRO VECINAL", "CPC": "RANCAGUA", "SECCIONAL": 13, "CIRCUITO": "13I", "DIRECCION": "BARRANCAS DEL PARANA ESQ. JOSÉ MELIÁN", "TIPO_DE_INMUEBLE": "COMODATO MUNICIPAL VIGENTE", "gx_media_links": null, "N": "CENTRO VECINAL", "TIPO DE INMUEBLE": "COMODATO MUNICIPAL VIGENTE" }, "geometry": { "type": "Point", "coordinates": [ -64.132226, -31.374298 ] } },
{ "type": "Feature", "properties": { "Name": "CENTRO VECINAL PATRICIOS", "TIPO_DE_INSTITUCI__N": "CENTRO VECINAL", "CPC": "RANCAGUA", "SECCIONAL": 13, "CIRCUITO": "13H", "DIRECCION": "C. VIDAL Y LUIS VERNET N° 2308", "TIPO_DE_INMUEBLE": "PROPIO", "gx_media_links": null, "N": "CENTRO VECINAL", "TIPO DE INMUEBLE": "PROPIO" }, "geometry": { "type": "Point", "coordinates": [ -64.1399, -31.37669 ] } },
{ "type": "Feature", "properties": { "Name": "CENTRO VECINAL PATRICIOS OESTE", "TIPO_DE_INSTITUCI__N": "CENTRO VECINAL", "CPC": "RANCAGUA", "SECCIONAL": 13, "CIRCUITO": "13H", "DIRECCION": "DIAZ COLODRERO N° 3610", "TIPO_DE_INMUEBLE": "COMODATO MUNICIPAL", "gx_media_links": null, "N": "CENTRO VECINAL", "TIPO DE INMUEBLE": "COMODATO MUNICIPAL" }, "geometry": { "type": "Point", "coordinates": [ -64.144599, -31.369019 ] } },
{ "type": "Feature", "properties": { "Name": "CENTRO VECINAL PARQUE MONTECRISTO - LA HORTENSIA", "TIPO_DE_INSTITUCI__N": "CENTRO VECINAL", "CPC": "RANCAGUA", "SECCIONAL": 13, "CIRCUITO": "13F", "DIRECCION": "CORREA DE SAA N° 1746", "TIPO_DE_INMUEBLE": "COMODATO MUNICIPAL", "gx_media_links": null, "N": "CENTRO VECINAL", "TIPO DE INMUEBLE": "COMODATO MUNICIPAL" }, "geometry": { "type": "Point", "coordinates": [ -64.138606, -31.388279 ] } },
{ "type": "Feature", "properties": { "Name": "CENTRO VECINAL GENERAL BELGRANO", "TIPO_DE_INSTITUCI__N": "CENTRO VECINAL", "CPC": "RANCAGUA", "SECCIONAL": 13, "CIRCUITO": "13H", "DIRECCION": "F. ABRAMO ESQ. H. DE AYOHUMA", "TIPO_DE_INMUEBLE": "COMODATO MUNICIPAL", "gx_media_links": null, "N": "CENTRO VECINAL", "TIPO DE INMUEBLE": "COMODATO MUNICIPAL" }, "geometry": { "type": "Point", "coordinates": [ -64.134795, -31.371135 ] } },
{ "type": "Feature", "properties": { "Name": "CENTRO VECINAL GUAYAQUIL", "TIPO_DE_INSTITUCI__N": "CENTRO VECINAL", "CPC": "RANCAGUA", "SECCIONAL": 13, "CIRCUITO": "13J", "DIRECCION": "AV. DEL TRABAJO N° 1928", "TIPO_DE_INMUEBLE": "COMODATO MUNICIPAL", "gx_media_links": null, "N": "CENTRO VECINAL", "TIPO DE INMUEBLE": "COMODATO MUNICIPAL" }, "geometry": { "type": "Point", "coordinates": [ -64.155945, -31.383102 ] } },
{ "type": "Feature", "properties": { "Name": "CENTRO VECINAL FINCA LA DOROTEA", "TIPO_DE_INSTITUCI__N": "CENTRO VECINAL", "CPC": "RANCAGUA", "SECCIONAL": 13, "CIRCUITO": "13E", "DIRECCION": "DE LOS FRUTALES N° 5150", "TIPO_DE_INMUEBLE": "COMODATO MUNICIPAL VIGENTE", "gx_media_links": null, "N": "CENTRO VECINAL", "TIPO DE INMUEBLE": "COMODATO MUNICIPAL VIGENTE" }, "geometry": { "type": "Point", "coordinates": [ -64.113141, -31.377065 ] } },
{ "type": "Feature", "properties": { "Name": "CENTRO VECINAL GENERAL ARENALES", "TIPO_DE_INSTITUCI__N": "CENTRO VECINAL", "CPC": "RANCAGUA", "SECCIONAL": 13, "CIRCUITO": "13D", "DIRECCION": "LA PIRINCHA ESQ. VENTEVEO", "TIPO_DE_INMUEBLE": "COMODATO MUNICIPAL", "gx_media_links": null, "N": "CENTRO VECINAL", "TIPO DE INMUEBLE": "COMODATO MUNICIPAL" }, "geometry": { "type": "Point", "coordinates": [ -64.060157, -31.369272 ] } },
{ "type": "Feature", "properties": { "Name": "CENTRO VECINAL VILLA AZALAIS", "TIPO_DE_INSTITUCI__N": "CENTRO VECINAL", "CPC": "RANCAGUA", "SECCIONAL": 13, "CIRCUITO": "13J", "DIRECCION": "RODRIGO DE PUCH ESQUINA SAN FERNANDO", "TIPO_DE_INMUEBLE": "COMODATO MUNICIPAL EN TRAMITE", "gx_media_links": null, "N": "CENTRO VECINAL", "TIPO DE INMUEBLE": "COMODATO MUNICIPAL EN TRAMITE" }, "geometry": { "type": "Point", "coordinates": [ -64.15224, -31.37068 ] } },
{ "type": "Feature", "properties": { "Name": "CENTRO VECINAL SAN JORGE Y RESIDENCIAL ARAGON", "TIPO_DE_INSTITUCI__N": "CENTRO VECINAL", "CPC": "RANCAGUA", "SECCIONAL": 13, "CIRCUITO": "13L", "DIRECCION": "JOSE ARRIOLA ESQ. CNGO. JOSE CHORROARIN", "TIPO_DE_INMUEBLE": "COMODATO MUNICIPAL", "gx_media_links": null, "N": "CENTRO VECINAL", "TIPO DE INMUEBLE": "COMODATO MUNICIPAL" }, "geometry": { "type": "Point", "coordinates": [ -64.131354, -31.369339 ] } },
{ "type": "Feature", "properties": { "Name": "CENTRO VECINAL LOS PLATANOS Y CONSORCIO ESPERANZA", "TIPO_DE_INSTITUCI__N": "CENTRO VECINAL", "CPC": "RUTA 20", "SECCIONAL": 11, "CIRCUITO": "11E", "DIRECCION": "TRISTAN ECHEGARAY N° 3491 ESQ. GAONA", "TIPO_DE_INMUEBLE": "COMODATO MUNICIPAL", "gx_media_links": null, "N": "CENTRO VECINAL", "TIPO DE INMUEBLE": "COMODATO MUNICIPAL" }, "geometry": { "type": "Point", "coordinates": [ -64.230943, -31.416967 ] } },
{ "type": "Feature", "properties": { "Name": "CENTRO VECINAL VILLA UNION", "TIPO_DE_INSTITUCI__N": "CENTRO VECINAL", "CPC": "RUTA 20", "SECCIONAL": 11, "CIRCUITO": "11", "DIRECCION": "BIEDMA RECALDE N° 5984 ESQ. AFRICA", "TIPO_DE_INMUEBLE": "PROPIO", "gx_media_links": null, "N": "CENTRO VECINAL", "TIPO DE INMUEBLE": "PROPIO" }, "geometry": { "type": "Point", "coordinates": [ -64.263121, -31.426438 ] } },
{ "type": "Feature", "properties": { "Name": "CENTRO VECINAL ROSEDAL ANEXO", "TIPO_DE_INSTITUCI__N": "CENTRO VECINAL", "CPC": "RUTA 20", "SECCIONAL": 10, "CIRCUITO": "10H", "DIRECCION": "LEÓN PINELO ESQ. OCTAVIANO NAVARRO", "TIPO_DE_INMUEBLE": "COMODATO MUNICIPAL EN TRAMITE", "gx_media_links": null, "N": "CENTRO VECINAL", "TIPO DE INMUEBLE": "COMODATO MUNICIPAL EN TRAMITE" }, "geometry": { "type": "Point", "coordinates": [ -64.227093, -31.439049 ] } },
{ "type": "Feature", "properties": { "Name": "CENTRO VECINAL PARQUE REPUBLICA", "TIPO_DE_INSTITUCI__N": "CENTRO VECINAL ", "CPC": "RUTA 20", "SECCIONAL": 11, "CIRCUITO": "11G", "DIRECCION": "PAINE N°5464", "TIPO_DE_INMUEBLE": "PROPIO ", "gx_media_links": null, "N": "CENTRO VECINAL", "TIPO DE INMUEBLE": "PROPIO" }, "geometry": { "type": "Point", "coordinates": [ -64.25767, -31.41485 ] } },
{ "type": "Feature", "properties": { "Name": "CENTRO VECINAL SAN RAFAEL ", "TIPO_DE_INSTITUCI__N": "CENTRO VECINAL ", "CPC": "RUTA 20", "SECCIONAL": 11, "CIRCUITO": "11D", "DIRECCION": "BLAMEY LAFORE N°°1198", "TIPO_DE_INMUEBLE": "USURPACIÓN PARCIAL ", "gx_media_links": null, "N": "CENTRO VECINAL", "TIPO DE INMUEBLE": "USURPACIÓN PARCIAL" }, "geometry": { "type": "Point", "coordinates": [ -64.22185, -31.42168 ] } },
{ "type": "Feature", "properties": { "Name": "CENTRO VECINAL AMEGHINO NORTE", "TIPO_DE_INSTITUCI__N": "CENTRO VECINAL", "CPC": "RUTA 20", "SECCIONAL": 11, "CIRCUITO": "11E", "DIRECCION": "AVIADOR ZANNI N° 3673", "TIPO_DE_INMUEBLE": "PROPIO", "gx_media_links": null, "N": "CENTRO VECINAL", "TIPO DE INMUEBLE": "PROPIO" }, "geometry": { "type": "Point", "coordinates": [ -64.236562, -31.430705 ] } },
{ "type": "Feature", "properties": { "Name": "CENTRO VECINAL RESIDENCIAL SAN ROQUE ", "TIPO_DE_INSTITUCI__N": "CENTRO VECINAL ", "CPC": "RUTA 20", "SECCIONAL": 1, "CIRCUITO": "11I", "DIRECCION": "CAMILO ISLEÑO N°4657", "TIPO_DE_INMUEBLE": "COMODATO MUNICIPAL", "gx_media_links": null, "N": "CENTRO VECINAL", "TIPO DE INMUEBLE": "COMODATO MUNICIPAL" }, "geometry": { "type": "Point", "coordinates": [ -64.24752, -31.43026 ] } },
{ "type": "Feature", "properties": { "Name": "CENTRO VECINAL EL TREBOL ", "TIPO_DE_INSTITUCI__N": "CENTRO VECINAL ", "CPC": "RUTA 20", "SECCIONAL": 11, "CIRCUITO": "11D", "DIRECCION": "ALFREDO SCHIUMA N°2865", "TIPO_DE_INMUEBLE": "COMODATO MUNICIPAL ", "gx_media_links": null, "N": "CENTRO VECINAL", "TIPO DE INMUEBLE": "COMODATO MUNICIPAL" }, "geometry": { "type": "Point", "coordinates": [ -64.22459, -31.42369 ] } },
{ "type": "Feature", "properties": { "Name": "CENTRO VECINAL AMEGHINO SUR", "TIPO_DE_INSTITUCI__N": "CENTRO VECINAL", "CPC": "RUTA 20", "SECCIONAL": 10, "CIRCUITO": "10F", "DIRECCION": "ACONCAGUA N° 4078", "TIPO_DE_INMUEBLE": "PROPIO", "gx_media_links": null, "N": "CENTRO VECINAL", "TIPO DE INMUEBLE": "PROPIO" }, "geometry": { "type": "Point", "coordinates": [ -64.241381, -31.432724 ] } },
{ "type": "Feature", "properties": { "Name": "CENTRO VECINAL INDUSTRIAL OESTE", "TIPO_DE_INSTITUCI__N": "CENTRO VECINAL", "CPC": "RUTA 20", "SECCIONAL": 11, "CIRCUITO": "11G", "DIRECCION": "CLETO AGUIRRE ESQ FUNA DE ATACAMA ", "TIPO_DE_INMUEBLE": "PROPIO", "gx_media_links": null, "N": "CENTRO VECINAL", "TIPO DE INMUEBLE": "PROPIO" }, "geometry": { "type": "Point", "coordinates": [ -64.26235, -31.40904 ] } },
{ "type": "Feature", "properties": { "Name": "CENTRO VECINAL AMPLIACIÓN ROSEDAL", "TIPO_DE_INSTITUCI__N": "CENTRO VECINAL", "CPC": "RUTA 20", "SECCIONAL": 10, "CIRCUITO": "10H", "DIRECCION": "ANTARTIDA N° 2750", "TIPO_DE_INMUEBLE": "COMODATO MUNICIPAL", "gx_media_links": null, "N": "CENTRO VECINAL", "TIPO DE INMUEBLE": "COMODATO MUNICIPAL" }, "geometry": { "type": "Point", "coordinates": [ -64.225742, -31.440078 ] } },
{ "type": "Feature", "properties": { "Name": "CENTRO VECINAL ATE", "TIPO_DE_INSTITUCI__N": "CENTRO VECINAL", "CPC": "RUTA 20", "SECCIONAL": 10, "CIRCUITO": "10F", "DIRECCION": "URITORCO N° 3215", "TIPO_DE_INMUEBLE": "COMODATO MUNICIPAL VIGENTE", "gx_media_links": null, "N": "CENTRO VECINAL", "TIPO DE INMUEBLE": "COMODATO MUNICIPAL VIGENTE" }, "geometry": { "type": "Point", "coordinates": [ -64.231211, -31.434244 ] } },
{ "type": "Feature", "properties": { "Name": "CENTRO VECINAL VILLA ADELA Y LAS PLAYAS", "TIPO_DE_INSTITUCI__N": "CENTRO VECINAL", "CPC": "RUTA 20", "SECCIONAL": 10, "CIRCUITO": "10E", "DIRECCION": "AVIADOR PETIROSSI N° 2430", "TIPO_DE_INMUEBLE": "PROPIO", "gx_media_links": null, "N": "CENTRO VECINAL", "TIPO DE INMUEBLE": "PROPIO" }, "geometry": { "type": "Point", "coordinates": [ -64.247995, -31.437264 ] } },
{ "type": "Feature", "properties": { "Name": "CENTRO VECINAL ROSEDAL", "TIPO_DE_INSTITUCI__N": "CENTRO VECINAL", "CPC": "RUTA 20", "SECCIONAL": 10, "CIRCUITO": "10H", "DIRECCION": "ESPORA N° 2215", "TIPO_DE_INMUEBLE": "COMODATO MUNICIPAL", "gx_media_links": "https:\/\/lh3.googleusercontent.com\/umsh\/AN6v0v4HtGP9HRli2DkmTHUo49Iww9ULFm3_Rhm266UYG6C88mHb2m3Kl6Puz-TRkDOLNpXxwslNtmYs598WYbhXbFRkk61lwRfARezrXDAlA5PyhhmWHPKulX80-bmvv3NXGq5bgny5yS6m1OYJbyFfITO0vU08EUJnlQ-_ODlgHoGzX5x54zkjwszRCRWsNTG9JDxIXR9eu2QQH1iVWBm-UrRrGW0ElMyVpEqDbqAPkkKLNxorTE9Ylcvv9XoRrfrwB3Oud14eedlXAdRzFOUnCLZ10FWuGWz8gzj77CjcDbL6f5V5p8AZL-RcNYU2Eej_kgf2zUaG_uSC6Nq_be5FhIZjsvqo3JN9JoAtIzHklCiDMKOW6Dxot_aQXGyAikm85K6m-D8dmYRRluIZT8LqzJ2pEkqNyeXo8zbKiQvSDYgFlpFgtGcHx1ZdGi6ICQUJk4PWbgF81dqj5q2WOU5TERjv0wdz1MPGX1zudeNGJr_N8bAucHg1ATkN2sRHzrL-VcTECYVEXTURY9IUz2DpBGEbi_6MhpIldNpANaZPu3jfe-zHeyLVIx7r1olg9z-br72bOU9nN2SX8oilVOgkS_8YpM6wvK81j13GmhPggdCu3LbyFzzmWebM5Kux7JGW2cyuNkG_fESXChVBOtoTTjKjiwbh8OwGDOPHmCwIcPuBeYCMEXjxmJYFwMnvcnVy5cDnsTn3fH2Ey6U7xSXe4G_wBgYKUqURtBjq2BWZYuAyi2o0pTf8RioUTV4f7HtRbdba1z8y6CngNpZpj-sX0gA_AD1OVDlVukmVpMvXNRGHwklwSpEDA-77cpddROB6NGzrC3OJhBzYRUDaxM9bicsHS4bxC48wA2jsUrWV6wBRRz__kt8kdGQgBi4iaxZqbV6qbTJM67FPzR7ysbVSg6YfHDN-4aN5AhmmzQwCW3w0QWdELYqB4KqP6xjbi-BjLPDnnnJCP0yWRnRM3dEXT0OMXxpb57u58r0IYro12Jvh9j7bojvWEzQH-kVa7c-at2Q4Y1GruU0r9wVx2bPRHjD1r380kV5iTg05aZ_gGovyS4TORKLlYi0fqDsBVvZn1AwCO1ts3et9LgZi5_W_mIU1GEQ7tuAulwM4hBZy64RqT8WjyYA__t-fSCx14nAoiVuWs0xoMNKv_rT5737qNy8HZsWgO4X5idNIJUbS5VmSaMUVX1zSQL4vnl73IDWNZTzJYiVIGJlYRsL0-Jif0HmDe1yfiaULhbEvUywvo2kHT-83qWAW0E1DTXsd_C6HxvGgXI_shmL0OSeVN-d1NfJoe9wXyS3NkaKS2cNvy8Yj7kiPZXLVaZehyauGZ5UCvhIlDgpfaOyVXs_zKEKCHbUb2HHmTuNZEdVZVu8s3ot63fVLSz2g7fpVooUZHc-6zUwS0FgdZsGQgd9Jdqc3vcP9PHHiZGR5UJ1_G-TKNAoK3hUL_CNMvGTnCZJqYc4HfRorKoDM4nRNh_mqfIB9gg0lSeKFCTxmPjvycs8HqNk1Sj-Ad3UswgDaBu1pdQKEg8N3UvMmR5YfVLRvhwrOixAZcPr5YXTruN02lGhV6uNUaxGTL6eEtieCYDK0b9Y5WmeUPAtRroS0WH7onLvM-1vccT6siZGgsfr8rTnl-PK3-1VXUqqg1EjytPA8bVdfNIzeRlylcp7Rf_xxJCZsPW3y6L0SXmcr16Oju4nKiHIO6EOE-q8SK46axudvOzCsSmIBvjNKOXBPP67lz31941yXW93xF88QiRN-LhRRJrxMu-X4ycNUQpGWSTAp6ufpiQvatYzgZe4HIDW9Lf7WslLy2AC-fpYyXUduul6O2Q2A0HrfvSHI0d3ZYv02wuKfA8rcdej2nL87FGZ4Rwzl9sL16kwT_D95vSWC4DlGp_cqh9jEbZZxsyLeNJzLewdYuSM2-dFJYcJkgLp1d1C95z27FrLiwQPJ74f55sLsucJ_sy2kM225yzRNbQ1Sqw-t-BO3P1D-4aBues24ynQ6SIxieJ683gETiRd_fues8RujSOAE1Y7rBqlCFL1n1VFkbzFL0sWiOvrgllSzVjH99QRnzrRm-lxNe0kJLZoyaWzcBkbERuAbhwssNPfCkUdGq9Dcp4mBu6o20Up7vUlz6Ul5sYNKrXgQ8LSW1JzKercoyKoW91A5SxmQcJxWilhyjvcwFqoeaiEAlWgDhigX3fkQW6N75eD6BODYI0fsyDVe4KdUMA2-oFRQV2cZa7de4kSrkdQ-nVZ-qy7qKWaHRVGYfdPfHTaX_s4fZP0sJ-zmvvHNg8pwqRCdStG-J4Ug6YGJDz2frT-5q-fCR1X6ldGlgkn2L-nmhReoMgT5LYeJzx4QYQjLCPlOGV95Mq-VjvVitaQTVC7xfCNtdnQ4F7HzNshv7wr7-F8ZEwiAcSpsCe29-JyhO8fP4TbGkja7qgTdru0l4jML7qzZap3R3sz1IeEkji_q7_Av42XZR4f3BCnELtt7-K7ZkwCc2pn_FeHJ_5kCZA-Y_ALvinjtqgVuJ_u_L1XDonCZUtAICq2q41MFGcwNeAlaRaUBD5qvEhkTRRPDfX01P6vWnoqdTDxYT_MdGLQmimIStQXzKVk0GjMWgiGTrLgmGXJius3HIpWh2U5B15N0AvJ6QCVIx6HoASXURoKHErNh4lfoe-Bc92J1WWEZYzQgxA2KDgxRtVFs3wRUC48TIWaruGaduCPXPnqGrwerSeuCucNWRTYz43KlJrjBNxs3OAkvmG3evyBICCtLA3OyEgAdgVbB-qocKIXLVnPRiA4Bhw", "N": "CENTRO VECINAL", "TIPO DE INMUEBLE": "COMODATO MUNICIPAL" }, "geometry": { "type": "Point", "coordinates": [ -64.226471, -31.434733 ] } },
{ "type": "Feature", "properties": { "Name": "CENTRO VECINAL MARIANO BALCARCE ", "TIPO_DE_INSTITUCI__N": "CENTRO VECINAL ", "CPC": "RUTA 20", "SECCIONAL": 10, "CIRCUITO": "10H", "DIRECCION": "PONCE DE LEON N°2529", "TIPO_DE_INMUEBLE": "PROPIO ", "gx_media_links": null, "N": "CENTRO VECINAL", "TIPO DE INMUEBLE": "PROPIO" }, "geometry": { "type": "Point", "coordinates": [ -64.22148, -31.43327 ] } },
{ "type": "Feature", "properties": { "Name": "CENTRO VECINAL ESTACION FLORES", "TIPO_DE_INSTITUCI__N": "CENTRO VECINAL", "CPC": "RUTA 20", "SECCIONAL": 10, "CIRCUITO": "10E", "DIRECCION": "ESTOCOLMO N° 4660 ESQ. COPENHAGE", "TIPO_DE_INMUEBLE": "COMODATO MUNICIPAL VIGENTE", "gx_media_links": null, "N": "CENTRO VECINAL", "TIPO DE INMUEBLE": "COMODATO MUNICIPAL VIGENTE" }, "geometry": { "type": "Point", "coordinates": [ -64.24772, -31.448678 ] } },
{ "type": "Feature", "properties": { "Name": "CENTRO VECINAL PARQUE CAPITAL SUD ", "TIPO_DE_INSTITUCI__N": "CENTRO VECINAL ", "CPC": "RUTA 20", "SECCIONAL": 10, "CIRCUITO": "10H", "DIRECCION": "AV. TRONADOR N°3074", "TIPO_DE_INMUEBLE": "PROPIO ", "gx_media_links": null, "N": "CENTRO VECINAL", "TIPO DE INMUEBLE": "PROPIO" }, "geometry": { "type": "Point", "coordinates": [ -64.2157, -31.44411 ] } },
{ "type": "Feature", "properties": { "Name": "CENTRO VECINAL PRIMERA JUNTA", "TIPO_DE_INSTITUCI__N": "CENTRO VECINAL ", "CPC": "RUTA 20", "SECCIONAL": 11, "CIRCUITO": "11D", "DIRECCION": "LEON PINELO ESQ. HECTOR PANIZA", "TIPO_DE_INMUEBLE": "COMODATO MUNICIPAL ", "gx_media_links": null, "N": "CENTRO VECINAL", "TIPO DE INMUEBLE": "COMODATO MUNICIPAL" }, "geometry": { "type": "Point", "coordinates": [ -64.22606, -31.42594 ] } },
{ "type": "Feature", "properties": { "Name": "CENTRO VECINAL RENÉ FAVALORO SUR", "TIPO_DE_INSTITUCI__N": "CENTRO VECINAL", "CPC": "RUTA 20", "SECCIONAL": 10, "CIRCUITO": "10F", "DIRECCION": "BONN N° 3651 ESQ. RUFINO VARELA ORTIZ", "TIPO_DE_INMUEBLE": "COMODATO MUNICIPAL VIGENTE", "gx_media_links": "https:\/\/lh3.googleusercontent.com\/umsh\/AN6v0v5_tqugItO1aLzGXXwCFd4lWwHn8RG8Iv2aohTDdUfMbvhsdd7kMj2Vbc5FmRMXug4u5GGOgnP8rAJ95h-A3OUitpIXyzn85hxHnjVPg_b2BR_l775FYj6foR9AI7N9LCznB8lWQlejdgcjNvCmJsSvf9nyO6rnwoHFvVld8er-WpcpbhEh1iWX86hSF6Z-Er-SNa6VxqarbhUFnvLyC9NDz9cMxDeV7ecU_WPxE45KaaeGyBByC28QJOmTYAPouGZ_kJTm_NgLz_fqSdhczsqgpG01UodQKvf-uZsN4l8pORbEsoMtuy4w-3TL3vr5eOgdpy1Uw7jExfrhCOCWo4ewTblxV686lPW2afLXje5niDRRG8DXzti-JPeCunqTO5Xk5t4S2g4ToHA52uNUngieyYLU1g-KM_pbUtLwyVs31PQIQrCKLBH70Gv5NNgDGKuIxLz7ColyEfq-YFgYp6XVRg0K8v8wEWcb3y55BpiF_H8hu5tiKZPr6t6xSp83T8qWAPKWfUcthjAQNpI2uJZBTXzjgFh3ejOnKDAEHg9eqm6_vdemgYNrcn_bSGA4JihYGRWhMQ8Oq2RmBpdOs9KU-Js4PGUHgrqWKJWwsVrYxVecbXQGVOv9ZdPmSgWmlE1Zy0vJ83zmdHgep4_BjYD4T2EGipOyKbVGcWYdQmtA3cSt5EjmwlfOfvuh5iEWXmM1r-ISZ-oaKzx6O069LomO8sVsshl-KbWdvc-VggxE957huOfivpKx74NGFaouXwASUEs1q5D2y-4wJeckogCiezDWw9MWnRRN5ZsV-aq1jn0TCAaJ5HYlgxcO8oAroLunimzFWqvR7VuxnMa9-0yNinxkOyrZqvQnBi07O6YXDqbdgTVbUNJnecmfaGpbwhiEm68uH65Of1vT32uDetCqHlviAo0KuC5spV5DPwg51gRaUF95-tw2rvpvA_rv6sbndSqPRdxhRcI5BTgapM2YgWfNCdFqPsmyl-uNMk0eO1BAZrldqD7pseGhcu4pZhQPnctE8Xsy8Fb__2KzwC8Oq34SIVbL3jyaRifmJtZf8rwdkZz4avswVNH4cJmlKG9CQMIQu3IYbJC0DqFPp61dR1wMkj2FuEhU-FA6P8QX3kR0WAT1653IA6VP7qlax0dck_R-nIgBLOrTG1tzK6SVHEGSe6qhdhD0cgNS6BnkHdDTFm9tbH1X8-JLwBrhb-Q9whhZS836_H-2kPqrHxsWi8llCnGhUSkoDDsPCe5EKKV-Cxla2ucgdEsFn4b0SVhUA7AhuCsQnA82XxSPkScmvncfhgr8ECXYSeAjdog8KiYzjuuUd5Up-GMZ3xqhk-NLPuAEk3jtGAOrb7fSfBADf20al03qL0AAwAl1OpCCBO-zCDiS4kkmpLfMAXh328xDaxJKusn5nWJL6p3mW18BkMWbeeKaqRgymig-Bxn_0aHxi_Y4yCA_aFTyJxQIvfQhG67-9VppPVRsVW88f8v-p_n9Dktp0Q18eYNS2sl-oPEijOYS4p6lclbz1cyVahur_jrGW3hOa74gdcQJ4RvketrYyzhA6nLcxpU8HRWxdFqRumCgH7YPtYdfYnOOj_WnA96Dm2ofw5OTf_h4tiOdqxo39EkqwUeGeps7yE0ao5WXruyePrEo9_b6NjfTvkghPe0oaIS0UZXU7Jaz0J2q4iHMkkM9_rqXppAVYkvWYnijVn_-svOicWfbMp_i24fuGFp0nq6y4y9RtlZJ67pRiWm9HOsxgeSlPRATOY3MHSAO9Km_zAWwo04nUIyHp1lPy0RBHzNBob9WPDpZgDkFBPItFHZqx0kkuEkz9-p0rdPmJR7aIteHfi8Iw0c_fNLG98NbZgaGYGDmoFeeURYEN5f8LirekqTCpYZ16lYRRn2AVBBKV3cLc83tH9C6LxuDTUJ0X7kKzb13msWVffQsPjuA9IL5rvSwnL4qPfdemsr-v1FzgnnqwOANSSXhQ0BQ78Qshh8t0FNQIn-y7XklecjhCoff_kRHUuq9rmqIqUW77u0OhYEJIFbFcooLAOBglXCHvUrJVlFp0Kroc09OJ8uRsXGmYbiokkGFRTyjs1MxLGgKF405l-5aO9UgQ-ypWmMV6w4_nQjI9LroAxliLqH6vVx6FgxUCOMJp7myNSsym2sFRHM1EPXTtMLxdNHTL9tP1PVvZrVitvdU1LDk2I0G3IcfKcQKWX9eqUljLmtR3S0j62vk1jTkBMf8WFbuN7oZiiL9RF_aEYUmsAiPvAk4X8wrhFuVpEVRzSu-XInMP4SYu9E93dKiedNzp-2-cTEv0wAKnhCBCrjolznPkYWdGSevczXvkUt8vwNa7S6aj94KuvMSPxrCoA0xJGobus17sejKLCWTIoYCtvgtdAaYeNOYpCRweZZ47z4ehRLPnQijXwDLK1tE5tRSXo5KJUPfqsnNAUxHFYCS8BfrgIFIYsM5draplhHL3KirL-hExNSFuoUSG36LX43AMxaltxZ3nBiKC_li-3_hT0zH0nQh8GnYy8G4DkkiYKw9AMYtI4DaVlroFWiNXZnYcb2QOUxbc3XdIp6VTS4CzksATP6azNeFx6S3eDT52jLbABqGYH2Y1TmyFVLd2IESJScR30VoYdCBo94is6c9ptAIXaWDX7IdIigfhZsBC5lUZceXs_nfeZvnzqs_kTxRKDsk7qOJXZPIQOSYQlJv_a_tHJLWe48TvXh92szfkP5RmgytYwnkCKaGBfbbQCr-DR9X41DW0BChaVe0fD_xVwyNvv2sibZepKdW", "N": "CENTRO VECINAL", "TIPO DE INMUEBLE": "COMODATO MUNICIPAL VIGENTE" }, "geometry": { "type": "Point", "coordinates": [ -64.236704, -31.450655 ] } },
{ "type": "Feature", "properties": { "Name": "CENTRO VECINAL MATIENZO", "TIPO_DE_INSTITUCI__N": "CENTRO VECINAL", "CPC": "RUTA 20", "SECCIONAL": 10, "CIRCUITO": "10F", "DIRECCION": "LOS PINOS ESQ. DIAZ DE LA FUENTE", "TIPO_DE_INMUEBLE": "COMODATO MUNICIPAL VIGENTE", "gx_media_links": null, "N": "CENTRO VECINAL", "TIPO DE INMUEBLE": "COMODATO MUNICIPAL VIGENTE" }, "geometry": { "type": "Point", "coordinates": [ -64.237204, -31.442922 ] } },
{ "type": "Feature", "properties": { "Name": "CENTRO VECINAL LOS GRANADOS ", "TIPO_DE_INSTITUCI__N": "CENTRO VECINAL ", "CPC": "RUTA 20", "SECCIONAL": 11, "CIRCUITO": "11E", "DIRECCION": "NUFLO DE CHAVEZ N°4153", "TIPO_DE_INMUEBLE": "PROPIO ", "gx_media_links": null, "N": "CENTRO VECINAL", "TIPO DE INMUEBLE": "PROPIO" }, "geometry": { "type": "Point", "coordinates": [ -64.24019, -31.42521 ] } },
{ "type": "Feature", "properties": { "Name": "CENTRO VECINAL LAS VIOLETAS", "TIPO_DE_INSTITUCI__N": "CENTRO VECINAL", "CPC": "RUTA 20", "SECCIONAL": 11, "CIRCUITO": "11G", "DIRECCION": "AVIADOR LOCATELLI N° 722", "TIPO_DE_INMUEBLE": "COMODATO PROVINCIAL", "gx_media_links": null, "N": "CENTRO VECINAL", "TIPO DE INMUEBLE": "COMODATO PROVINCIAL" }, "geometry": { "type": "Point", "coordinates": [ -64.25097, -31.408845 ] } },
{ "type": "Feature", "properties": { "Name": "COMISION DE VECINOS VILLA ALBERTO ", "TIPO_DE_INSTITUCI__N": "COMISION DE VECINOS ", "CPC": "RUTA 20", "SECCIONAL": 11, "CIRCUITO": "11G", "DIRECCION": "SARGENTO GOMES ESQ. ALTO ALEGRE ", "TIPO_DE_INMUEBLE": "USURPADO", "gx_media_links": null, "N": "COMISION DE VECINOS", "TIPO DE INMUEBLE": "USURPADO" }, "geometry": { "type": "Point", "coordinates": [ -64.26386, -31.42021 ] } },
{ "type": "Feature", "properties": { "Name": "CENTRO VECINAL ALEJANDRO CARBO", "TIPO_DE_INSTITUCI__N": "CENTRO VECINAL", "CPC": "VILLA LIBERTADOR", "SECCIONAL": 10, "CIRCUITO": "10C", "DIRECCION": "VIRGEN DE FATIMA N° 5665 ESQ. VAQUERIA", "TIPO_DE_INMUEBLE": "COMODATO MUNICIPAL EN TRAMITE", "gx_media_links": null, "N": "CENTRO VECINAL", "TIPO DE INMUEBLE": "COMODATO MUNICIPAL EN TRAMITE" }, "geometry": { "type": "Point", "coordinates": [ -64.208811, -31.480808 ] } },
{ "type": "Feature", "properties": { "Name": "CENTRO VECINAL GENERAL ARTIGAS", "TIPO_DE_INSTITUCI__N": "CENTRO VECINAL", "CPC": "VILLA EL LIBERTADOR", "SECCIONAL": 4, "CIRCUITO": "4A", "DIRECCION": "FELIPE BELARDINELLI N° 4628", "TIPO_DE_INMUEBLE": "PROPIO", "gx_media_links": null, "N": "CENTRO VECINAL", "TIPO DE INMUEBLE": "PROPIO" }, "geometry": { "type": "Point", "coordinates": [ -64.198539, -31.464801 ] } },
{ "type": "Feature", "properties": { "Name": "CENTRO VECINAL PARQUE FUTURA", "TIPO_DE_INSTITUCI__N": "CENTRO VECINAL", "CPC": "VILLA EL LIBERTADOR", "SECCIONAL": 10, "CIRCUITO": "10K", "DIRECCION": "GUANASACATE N° 2845", "TIPO_DE_INMUEBLE": "USURPACIÓN PARCIAL", "gx_media_links": null, "N": "CENTRO VECINAL", "TIPO DE INMUEBLE": "USURPACIÓN PARCIAL" }, "geometry": { "type": "Point", "coordinates": [ -64.247323, -31.483397 ] } },
{ "type": "Feature", "properties": { "Name": "CENTRO VECINAL SANTA ISABEL SECCION 1", "TIPO_DE_INSTITUCI__N": "CENTRO VECINAL", "CPC": "VILLA EL LIBERTADOR", "SECCIONAL": 10, "CIRCUITO": "10J", "DIRECCION": "FERNANDO CASADO N° 2166", "TIPO_DE_INMUEBLE": "COMODATO MUNICIPAL", "gx_media_links": null, "N": "CENTRO VECINAL", "TIPO DE INMUEBLE": "COMODATO MUNICIPAL" }, "geometry": { "type": "Point", "coordinates": [ -64.235162, -31.471521 ] } },
{ "type": "Feature", "properties": { "Name": "CENTRO VECINAL EJERCITO ARGENTINO", "TIPO_DE_INSTITUCI__N": "CENTRO VECINAL", "CPC": "VILLA EL LIBERTADOR", "SECCIONAL": 4, "CIRCUITO": "4A", "DIRECCION": "ADRIAN ESCOBAR N° 3199", "TIPO_DE_INMUEBLE": "COMODATO MUNICIPAL", "gx_media_links": null, "N": "CENTRO VECINAL", "TIPO DE INMUEBLE": "COMODATO MUNICIPAL" }, "geometry": { "type": "Point", "coordinates": [ -64.196274, -31.448234 ] } },
{ "type": "Feature", "properties": { "Name": "CENTRO VECINAL PARQUE VELEZ SARSFIELD", "TIPO_DE_INSTITUCI__N": "CENTRO VECINAL", "CPC": "VILLA EL LIBERTADOR", "SECCIONAL": 10, "CIRCUITO": "10", "DIRECCION": "NACIONES UNIDAS N° 470", "TIPO_DE_INMUEBLE": "COMODATO MUNICIPAL", "gx_media_links": null, "N": "CENTRO VECINAL", "TIPO DE INMUEBLE": "COMODATO MUNICIPAL" }, "geometry": { "type": "Point", "coordinates": [ -64.20175, -31.442184 ] } },
{ "type": "Feature", "properties": { "Name": "CENTRO VECINAL CIUDADELA Y SAN DANIEL", "TIPO_DE_INSTITUCI__N": "CENTRO VECINAL", "CPC": "VILLA EL LIBERTADOR", "SECCIONAL": 10, "CIRCUITO": "10B", "DIRECCION": "CANNES N° 3320", "TIPO_DE_INMUEBLE": "COMODATO MUNICIPAL", "gx_media_links": null, "N": "CENTRO VECINAL", "TIPO DE INMUEBLE": "COMODATO MUNICIPAL" }, "geometry": { "type": "Point", "coordinates": [ -64.204364, -31.447333 ] } },
{ "type": "Feature", "properties": { "Name": "CENTRO VECINAL CABILDO", "TIPO_DE_INSTITUCI__N": "CENTRO VECINAL", "CPC": "VILLA EL LIBERTADOR", "SECCIONAL": 10, "CIRCUITO": "10A", "DIRECCION": "SAN RAFAEL N° 2152", "TIPO_DE_INMUEBLE": "COMODATO MUNICIPAL VIGENTE", "gx_media_links": null, "N": "CENTRO VECINAL", "TIPO DE INMUEBLE": "COMODATO MUNICIPAL VIGENTE" }, "geometry": { "type": "Point", "coordinates": [ -64.235179, -31.489596 ] } },
{ "type": "Feature", "properties": { "Name": "CENTRO VECINAL VILLA EL LIBERTADOR", "TIPO_DE_INSTITUCI__N": "CENTRO VECINAL", "CPC": "VILLA EL LIBERTADOR", "SECCIONAL": 10, "CIRCUITO": "10L", "DIRECCION": "ALTOS DE FLORES N° 1074", "TIPO_DE_INMUEBLE": "COMODATO MUNICIPAL", "gx_media_links": null, "N": "CENTRO VECINAL", "TIPO DE INMUEBLE": "COMODATO MUNICIPAL" }, "geometry": { "type": "Point", "coordinates": [ -64.218146, -31.472787 ] } },
{ "type": "Feature", "properties": { "Name": "CENTRO VECINAL SUAREZ", "TIPO_DE_INSTITUCI__N": "CENTRO VECINAL ", "CPC": "VILLA EL LIBERTADOR", "SECCIONAL": 10, "CIRCUITO": "10", "DIRECCION": "DOMINGO DE IRALA N° 1179", "TIPO_DE_INMUEBLE": "PROPIO ", "gx_media_links": null, "N": "CENTRO VECINAL", "TIPO DE INMUEBLE": "PROPIO" }, "geometry": { "type": "Point", "coordinates": [ -64.20998, -31.44191 ] } },
{ "type": "Feature", "properties": { "Name": "CENTRO VECINAL SANTA ROSA RESIDENCIAL", "TIPO_DE_INSTITUCI__N": "CENTRO VECINAL", "CPC": "VILLA EL LIBERTADOR", "SECCIONAL": 10, "CIRCUITO": "10L", "DIRECCION": "ARIZA N° 94", "TIPO_DE_INMUEBLE": "PROPIO", "gx_media_links": null, "N": "CENTRO VECINAL", "TIPO DE INMUEBLE": "PROPIO" }, "geometry": { "type": "Point", "coordinates": [ -64.205153, -31.477348 ] } },
{ "type": "Feature", "properties": { "Name": "CENTRO VECINAL RESIDENCIAL SUD", "TIPO_DE_INSTITUCI__N": "CENTRO VECINAL", "CPC": "VILLA EL LIBERTADOR", "SECCIONAL": 10, "CIRCUITO": "10J", "DIRECCION": "LAGO ARGENTINO N° 1991", "TIPO_DE_INMUEBLE": "PROPIO", "gx_media_links": null, "N": "CENTRO VECINAL", "TIPO DE INMUEBLE": "PROPIO" }, "geometry": { "type": "Point", "coordinates": [ -64.225257, -31.465398 ] } },
{ "type": "Feature", "properties": { "Name": "CENTRO VECINAL CONGRESO", "TIPO_DE_INSTITUCI__N": "CENTRO VECINAL", "CPC": "VILLA EL LIBERTADOR", "SECCIONAL": 10, "CIRCUITO": "10D", "DIRECCION": "REALICO N° 2375 ESQ. LA CARLOTA", "TIPO_DE_INMUEBLE": "COMODATO MUNICIPAL", "gx_media_links": null, "N": "CENTRO VECINAL", "TIPO DE INMUEBLE": "COMODATO MUNICIPAL" }, "geometry": { "type": "Point", "coordinates": [ -64.234422, -31.466513 ] } },
{ "type": "Feature", "properties": { "Name": "CENTRO VECINAL SANTA ISABEL SECCION 3", "TIPO_DE_INSTITUCI__N": "CENTRO VECINAL", "CPC": "VILLA EL LIBERTADOR", "SECCIONAL": 10, "CIRCUITO": "10J", "DIRECCION": "GRENADA N° 2749", "TIPO_DE_INMUEBLE": "COMODATO MUNICIPAL", "gx_media_links": null, "N": "CENTRO VECINAL", "TIPO DE INMUEBLE": "COMODATO MUNICIPAL" }, "geometry": { "type": "Point", "coordinates": [ -64.242595, -31.47776 ] } },
{ "type": "Feature", "properties": { "Name": "CENTRO VECINAL LOS OLMOS ", "TIPO_DE_INSTITUCI__N": "CENTRO VECINAL ", "CPC": "VILLA EL LIBERTADOR ", "SECCIONAL": 10, "CIRCUITO": "10I", "DIRECCION": "LEOPOLDO MELO N°1239", "TIPO_DE_INMUEBLE": "PROPIO ", "gx_media_links": null, "N": "CENTRO VECINAL", "TIPO DE INMUEBLE": "PROPIO" }, "geometry": { "type": "Point", "coordinates": [ -64.21737, -31.45701 ] } },
{ "type": "Feature", "properties": { "Name": "CENTRO VECINAL SANTA ISABEL SECCION 2", "TIPO_DE_INSTITUCI__N": "CENTRO VECINAL", "CPC": "VILLA EL LIBERTADOR", "SECCIONAL": 10, "CIRCUITO": "10J", "DIRECCION": "CAJAMARCA N° 2200", "TIPO_DE_INMUEBLE": "USURPADO", "gx_media_links": null, "N": "CENTRO VECINAL", "TIPO DE INMUEBLE": "USURPADO" }, "geometry": { "type": "Point", "coordinates": [ -64.235992, -31.479663 ] } },
{ "type": "Feature", "properties": { "Name": "CENTRO VECINAL COMERCIAL", "TIPO_DE_INSTITUCI__N": "CENTRO VECINAL", "CPC": "VILA EL LIBERTADOR", "SECCIONAL": 10, "CIRCUITO": "10C", "DIRECCION": "VILLA MARIA N° 6082 ESQ. RIO TERCERO", "TIPO_DE_INMUEBLE": "COMODATO MUNICIPAL VIGENTE", "gx_media_links": null, "N": "CENTRO VECINAL", "TIPO DE INMUEBLE": "COMODATO MUNICIPAL VIGENTE" }, "geometry": { "type": "Point", "coordinates": [ -64.211474, -31.484373 ] } },
{ "type": "Feature", "properties": { "Name": "CENTRO VECINAL ALTOS DE VELEZ SARSFIELD", "TIPO_DE_INSTITUCI__N": "CENTRO VECINAL", "CPC": "VILLA EL LIBERTADOR", "SECCIONAL": 10, "CIRCUITO": "10B", "DIRECCION": "TAFI N° 1216", "TIPO_DE_INMUEBLE": "PROPIO", "gx_media_links": null, "N": "CENTRO VECINAL", "TIPO DE INMUEBLE": "PROPIO" }, "geometry": { "type": "Point", "coordinates": [ -64.215177, -31.450798 ] } },
{ "type": "Feature", "properties": { "Name": "CENTRO VECINAL CABO FARINA", "TIPO_DE_INSTITUCI__N": "CENTRO VECINAL", "CPC": "VILLA EL LIBERTADOR", "SECCIONAL": 10, "CIRCUITO": "10L", "DIRECCION": "VIÑA DEL MAR N° 4319", "TIPO_DE_INMUEBLE": "PROPIO", "gx_media_links": null, "N": "CENTRO VECINAL", "TIPO DE INMUEBLE": "PROPIO" }, "geometry": { "type": "Point", "coordinates": [ -64.204128, -31.460125 ] } },
{ "type": "Feature", "properties": { "Name": "CENTRO VECINAL AMPLIACION CABO FARINA", "TIPO_DE_INSTITUCI__N": "CENTRO VECINAL", "CPC": "VILLA EL LIBERTADOR", "SECCIONAL": 10, "CIRCUITO": "10I", "DIRECCION": "BARDA DEL MEDIO N° 808", "TIPO_DE_INMUEBLE": "COMODATO MUNICIPAL", "gx_media_links": null, "N": "CENTRO VECINAL", "TIPO DE INMUEBLE": "COMODATO MUNICIPAL" }, "geometry": { "type": "Point", "coordinates": [ -64.213396, -31.462612 ] } },
{ "type": "Feature", "properties": { "Name": "CENTRO VECINAL MIRIZZI", "TIPO_DE_INSTITUCI__N": "CENTRO VECINAL ", "CPC": "VILLA EL LIBERTADOR", "SECCIONAL": 10, "CIRCUITO": "10L", "DIRECCION": "VINA DEL MAR 5054", "TIPO_DE_INMUEBLE": "USURPADO", "gx_media_links": null, "N": "CENTRO VECINAL", "TIPO DE INMUEBLE": "USURPADO" }, "geometry": { "type": "Point", "coordinates": [ -64.206914, -31.473063 ] } },
{ "type": "Feature", "properties": { "Name": "CENTRO VECINAL COLINAS DE VELEZ SARSFIELD", "TIPO_DE_INSTITUCI__N": "CENTRO VECINAL", "CPC": "VILLA EL LIBERTADOR", "SECCIONAL": 10, "CIRCUITO": "10", "DIRECCION": "PLAZOLETA BARRANCAS DE COLINAS", "TIPO_DE_INMUEBLE": "COMODATO MUNICIPAL", "gx_media_links": null, "N": "CENTRO VECINAL", "TIPO DE INMUEBLE": "COMODATO MUNICIPAL" }, "geometry": { "type": "Point", "coordinates": [ -64.202836, -31.475218 ] } },
{ "type": "Feature", "properties": { "Name": "COMISION DE VECINOS PARQUE UNIVERSIDAD", "TIPO_DE_INSTITUCI__N": "COMISION DE VECINOS", "CPC": "VILLA EL LIBERTADOR", "SECCIONAL": 10, "CIRCUITO": "10K", "DIRECCION": "MANZANA 3 LOTE 40", "TIPO_DE_INMUEBLE": "PROPIO", "gx_media_links": null, "N": "COMISION DE VECINOS", "TIPO DE INMUEBLE": "PROPIO" }, "geometry": { "type": "Point", "coordinates": [ -64.260361, -31.495228 ] } },
{ "type": "Feature", "properties": { "Name": "CENTRO VECINAL COLONIA LOLA Y MIRALTA ", "TIPO_DE_INSTITUCI__N": "CENTRO VECINAL ", "CPC": "SAN VICENTE ", "SECCIONAL": 5, "CIRCUITO": "5A", "DIRECCION": "LOLA MORA N°1348", "TIPO_DE_INMUEBLE": "COMODATO MUNICIPAL ", "gx_media_links": null, "N": "CENTRO VECINAL", "TIPO DE INMUEBLE": "COMODATO MUNICIPAL" }, "geometry": { "type": "Point", "coordinates": [ -64.11526, -31.42495 ] } },
{ "type": "Feature", "properties": { "Name": "CENTRO VECINAL MALDONADO ", "TIPO_DE_INSTITUCI__N": "CENTRO VECIAL ", "CPC": "SAN VICENTE ", "SECCIONAL": 5, "CIRCUITO": "5D", "DIRECCION": "MARTIN CARTECHINI ESQ BLAS PARERA", "TIPO_DE_INMUEBLE": "COMODATO MUNICIPAL ", "gx_media_links": null, "N": "CENTRO VECIAL", "TIPO DE INMUEBLE": "COMODATO MUNICIPAL" }, "geometry": { "type": "Point", "coordinates": [ -64.13157, -31.41447 ] } },
{ "type": "Feature", "properties": { "Name": "CENTRO VECINAL ACOSTA", "TIPO_DE_INSTITUCI__N": "CENTRO VECINAL", "CPC": "SAN VICENTE", "SECCIONAL": 5, "CIRCUITO": "5", "DIRECCION": "SOTO N° 1063", "TIPO_DE_INMUEBLE": "PROPIO", "gx_media_links": null, "N": "CENTRO VECINAL", "TIPO DE INMUEBLE": "PROPIO" }, "geometry": { "type": "Point", "coordinates": [ -64.125496, -31.422214 ] } },
{ "type": "Feature", "properties": { "Name": "CENTRO VECINAL ALTAMIRA Y AMPLIACION", "TIPO_DE_INSTITUCI__N": "CENTRO VECINAL", "CPC": "SAN VICENTE", "SECCIONAL": 5, "CIRCUITO": "5", "DIRECCION": "RIO SEGUNDO N° 940", "TIPO_DE_INMUEBLE": "COMODATO MUNICIPAL", "gx_media_links": null, "N": "CENTRO VECINAL", "TIPO DE INMUEBLE": "COMODATO MUNICIPAL" }, "geometry": { "type": "Point", "coordinates": [ -64.13128, -31.420883 ] } },
{ "type": "Feature", "properties": { "Name": "CENTRO VECINAL EL MIRADOR Y VILLA ARGENTINA ", "TIPO_DE_INSTITUCI__N": "CENTRO VECINAL", "CPC": "SAN VICENTE ", "SECCIONAL": 5, "CIRCUITO": "5C", "DIRECCION": "PEDERNERA ESQ. ARIZA ", "TIPO_DE_INMUEBLE": "USURPADO", "gx_media_links": null, "N": "CENTRO VECINAL", "TIPO DE INMUEBLE": "USURPADO" }, "geometry": { "type": "Point", "coordinates": [ -64.14032, -31.43008 ] } },
{ "type": "Feature", "properties": { "Name": "CENTRO VECINAL MÜLLER", "TIPO_DE_INSTITUCI__N": "CENTRO VECINAL", "CPC": "SAN VICENTE", "SECCIONAL": 5, "CIRCUITO": "5D", "DIRECCION": "FELICIANO CHICLANA N° 3543", "TIPO_DE_INMUEBLE": "PROPIO", "gx_media_links": null, "N": "CENTRO VECINAL", "TIPO DE INMUEBLE": "PROPIO" }, "geometry": { "type": "Point", "coordinates": [ -64.136967, -31.412392 ] } },
{ "type": "Feature", "properties": { "Name": "COMISION DE VECINOS FOMENTO DE SAN VICENTE ", "TIPO_DE_INSTITUCI__N": "COMISION DE VECINOS ", "CPC": "SAN VICENTE ", "SECCIONAL": 12, "CIRCUITO": "12D", "DIRECCION": "SAN ALBERTO N° 1412", "TIPO_DE_INMUEBLE": "PROPIO ", "gx_media_links": null, "N": "COMISION DE VECINOS", "TIPO DE INMUEBLE": "PROPIO" }, "geometry": { "type": "Point", "coordinates": [ -64.15337, -31.42405 ] } },
{ "type": "Feature", "properties": { "Name": "CENTRO VECINAL RENACIMIENTO - LOS JOSEFINOS", "TIPO_DE_INSTITUCI__N": "COMISION DE VECINOS", "CPC": "SAN VICENTE", "SECCIONAL": 5, "CIRCUITO": "5D", "DIRECCION": "GREGORIO LEMOS N° 5014 ESQ. MARIO BRAVO", "TIPO_DE_INMUEBLE": "COMODATO MUNICIPAL", "gx_media_links": null, "N": "COMISION DE VECINOS", "TIPO DE INMUEBLE": "COMODATO MUNICIPAL" }, "geometry": { "type": "Point", "coordinates": [ -64.121812, -31.415703 ] } },
{ "type": "Feature", "properties": { "Name": "COMISION DE VECINOS SAN VICENTE Y LOS CEIBOS", "TIPO_DE_INSTITUCI__N": "COMISION DE VECINOS", "CPC": "SAN VICENTE", "SECCIONAL": 5, "CIRCUITO": "5G", "DIRECCION": "TRISTAN NARVAJA N° 1848", "TIPO_DE_INMUEBLE": "COMODATO MUNICIPAL", "gx_media_links": null, "N": "COMISION DE VECINOS", "TIPO DE INMUEBLE": "COMODATO MUNICIPAL" }, "geometry": { "type": "Point", "coordinates": [ -64.147733, -31.429642 ] } },
{ "type": "Feature", "properties": { "Name": "CENTRO VECINAL COOPERATIVA PEDACITO DE CIELO", "TIPO_DE_INSTITUCI__N": "CENTRO VECINAL", "CPC": "SAN VICENTE", "SECCIONAL": 5, "CIRCUITO": "5F", "DIRECCION": "MARIANO BOEDO N° 850", "TIPO_DE_INMUEBLE": "PROPIO", "gx_media_links": null, "N": "CENTRO VECINAL", "TIPO DE INMUEBLE": "PROPIO" }, "geometry": { "type": "Point", "coordinates": [ -64.117225, -31.420853 ] } },
{ "type": "Feature", "properties": { "Name": "CENTRO VECINAL JOSE HERNANDEZ ", "TIPO_DE_INSTITUCI__N": "CENTRO VECINAL ", "CPC": "CHALET SAN FELIPE", "SECCIONAL": 12, "CIRCUITO": "12F", "DIRECCION": "TAPALQUE ESQ. MUTILOA Y ANDUEZA ", "TIPO_DE_INMUEBLE": "COMODATO PROVINCIAL ", "gx_media_links": null, "N": "CENTRO VECINAL", "TIPO DE INMUEBLE": "COMODATO PROVINCIAL" }, "geometry": { "type": "Point", "coordinates": [ -64.15827, -31.44383 ] } },
{ "type": "Feature", "properties": { "Name": "CENTRO VECINAL JARDIN DEL PILAR ", "TIPO_DE_INSTITUCI__N": "CENTRO VECINAL ", "CPC": "CHALET SAN FELIPE ", "SECCIONAL": 12, "CIRCUITO": "12F", "DIRECCION": "CHASCOMUS ESQ. TRES ARROYOS ", "TIPO_DE_INMUEBLE": "COMODATO MUNICIPAL ", "gx_media_links": null, "N": "CENTRO VECINAL", "TIPO DE INMUEBLE": "COMODATO MUNICIPAL" }, "geometry": { "type": "Point", "coordinates": [ -64.15488, -31.44587 ] } },
{ "type": "Feature", "properties": { "Name": "CENTRO VECINAL LAS LILAS", "TIPO_DE_INSTITUCI__N": "CENTRO VECINAL", "CPC": "CHALET SAN FELIPE ", "SECCIONAL": 12, "CIRCUITO": "12D", "DIRECCION": "GABRIEL DE CEPEDA N° 4092", "TIPO_DE_INMUEBLE": "COMODATO PROVINCIAL ", "gx_media_links": null, "N": "CENTRO VECINAL", "TIPO DE INMUEBLE": "COMODATO PROVINCIAL" }, "geometry": { "type": "Point", "coordinates": [ -64.1357, -31.44668 ] } },
{ "type": "Feature", "properties": { "Name": "CENTRO VECINAL SAN FELIPE ", "TIPO_DE_INSTITUCI__N": "CENTRO VECINAL ", "CPC": "CHALET SAN FELIPE ", "SECCIONAL": 12, "CIRCUITO": "12D", "DIRECCION": "ABARCA Y VELASCO N° 4984", "TIPO_DE_INMUEBLE": "COMODATO MUNICIPAL VIGENTE ", "gx_media_links": null, "N": "CENTRO VECINAL", "TIPO DE INMUEBLE": "COMODATO MUNICIPAL VIGENTE" }, "geometry": { "type": "Point", "coordinates": [ -64.13325, -31.45675 ] } },
{ "type": "Feature", "properties": { "Name": "CENTRO VECINAL RAMON J CARCANO ", "TIPO_DE_INSTITUCI__N": "CENTRO VECINAL ", "CPC": "CHALET SAN FELIPE ", "SECCIONAL": 12, "CIRCUITO": "12A", "DIRECCION": "PRUDENCIO MURGIONDO N°4427", "TIPO_DE_INMUEBLE": "PROPIO ", "gx_media_links": null, "N": "CENTRO VECINAL", "TIPO DE INMUEBLE": "PROPIO" }, "geometry": { "type": "Point", "coordinates": [ -64.14354, -31.4639 ] } },
{ "type": "Feature", "properties": { "Name": "CENTRO VECINAL EL QUEBRACHO ", "TIPO_DE_INSTITUCI__N": "CENTRO VECINAL ", "CPC": "CHALET SAN FELIPE ", "SECCIONAL": 12, "CIRCUITO": "12A", "DIRECCION": "JUAN CHARLONE N° 5511", "TIPO_DE_INMUEBLE": "COMODATO PROVINCIAL ", "gx_media_links": null, "N": "CENTRO VECINAL", "TIPO DE INMUEBLE": "COMODATO PROVINCIAL" }, "geometry": { "type": "Point", "coordinates": [ -64.13844, -31.47723 ] } },
{ "type": "Feature", "properties": { "Name": "CENTRO VECINAL CORONEL OLMEDO", "TIPO_DE_INSTITUCI__N": "CENTRO VECINAL ", "CPC": "CHALET SAN FELIPE ", "SECCIONAL": 12, "CIRCUITO": "12A", "DIRECCION": "SANTIAGO DE LA CARRERA ESQ. PASCUAL RUIZ HIDOBRO", "TIPO_DE_INMUEBLE": "COMODATO MUNICIPAL", "gx_media_links": null, "N": "CENTRO VECINAL", "TIPO DE INMUEBLE": "COMODATO MUNICIPAL" }, "geometry": { "type": "Point", "coordinates": [ -64.14286, -31.48151 ] } },
{ "type": "Feature", "properties": { "Name": "CENTRO VECINAL JOSE IGNACIO DIAZ SECCION 3", "TIPO_DE_INSTITUCI__N": "CENTRO VECINAL", "CPC": "CHALET SAN FELIPE", "SECCIONAL": 12, "CIRCUITO": "12D", "DIRECCION": "CHIRINO DE POSADAS N° 4630", "TIPO_DE_INMUEBLE": "COMODATO MUNICIPAL", "gx_media_links": null, "N": "CENTRO VECINAL", "TIPO DE INMUEBLE": "COMODATO MUNICIPAL" }, "geometry": { "type": "Point", "coordinates": [ -64.138855, -31.448447 ] } },
{ "type": "Feature", "properties": { "Name": "CENTRO VECINAL FERREYRA", "TIPO_DE_INSTITUCI__N": "CENTRO VECINAL", "CPC": "CHALET SAN FELIPE", "SECCIONAL": 12, "CIRCUITO": "12E", "DIRECCION": "CIPRIANO PERELLO N° 4372", "TIPO_DE_INMUEBLE": "PROPIO", "gx_media_links": null, "N": "CENTRO VECINAL", "TIPO DE INMUEBLE": "PROPIO" }, "geometry": { "type": "Point", "coordinates": [ -64.109292, -31.463518 ] } },
{ "type": "Feature", "properties": { "Name": "CENTRO VECINAL BENJAMIN POLICARPIO CABRAL Y TALLERES", "TIPO_DE_INSTITUCI__N": "CENTRO VECINAL", "CPC": "CHALET SAN FELIPE", "SECCIONAL": 12, "CIRCUITO": "12D", "DIRECCION": "CARLOS GERVASONI N° 2508", "TIPO_DE_INMUEBLE": "PROPIO", "gx_media_links": null, "N": "CENTRO VECINAL", "TIPO DE INMUEBLE": "PROPIO" }, "geometry": { "type": "Point", "coordinates": [ -64.135774, -31.439422 ] } },
{ "type": "Feature", "properties": { "Name": "CENTRO VECINAL 23 DE ABRIL", "TIPO_DE_INSTITUCI__N": "CENTRO VECINAL", "CPC": "CHALET SAN FELIPE", "SECCIONAL": 12, "CIRCUITO": "12D", "DIRECCION": "DIEGO DE FUNES Y SALINAS 3856", "TIPO_DE_INMUEBLE": "PRESTADO", "gx_media_links": null, "N": "CENTRO VECINAL", "TIPO DE INMUEBLE": "PRESTADO" }, "geometry": { "type": "Point", "coordinates": [ -64.1297016, -31.458835 ] } },
{ "type": "Feature", "properties": { "Name": "COMISION DE VECINOS 25 DE MAYO", "TIPO_DE_INSTITUCI__N": "COMISION DE VECINOS", "CPC": "CHALET SAN FELIPE", "SECCIONAL": 12, "CIRCUITO": "12E", "DIRECCION": "CUMBRES DE GASPAR MANZANA 11 CASA 4", "TIPO_DE_INMUEBLE": "PROPIO", "gx_media_links": null, "N": "COMISION DE VECINOS", "TIPO DE INMUEBLE": "PROPIO" }, "geometry": { "type": "Point", "coordinates": [ -64.080948, -31.489828 ] } },
{ "type": "Feature", "properties": { "Name": "CENTRO VECINAL OÑA ", "TIPO_DE_INSTITUCI__N": "CENTRO VECINAL ", "CPC": "JARDIN", "SECCIONAL": 12, "CIRCUITO": "12F", "DIRECCION": "PAMPAYASTA N° 2295", "TIPO_DE_INMUEBLE": "COMODATO MUNICIPAL ", "gx_media_links": null, "N": "CENTRO VECINAL", "TIPO DE INMUEBLE": "COMODATO MUNICIPAL" }, "geometry": { "type": "Point", "coordinates": [ -64.16539, -31.44948 ] } },
{ "type": "Feature", "properties": { "Name": "CENTRO VECINAL OSN (OBRAS SANITARIAS)", "TIPO_DE_INSTITUCI__N": "CENTRO VECINAL ", "CPC": "JARDIN", "SECCIONAL": 12, "CIRCUITO": "12H", "DIRECCION": "AV. CELSO BARRIOS N°2857", "TIPO_DE_INMUEBLE": "PRESTADO ", "gx_media_links": null, "N": "CENTRO VECINAL", "TIPO DE INMUEBLE": "PRESTADO" }, "geometry": { "type": "Point", "coordinates": [ -64.15955, -31.45819 ] } },
{ "type": "Feature", "properties": { "Name": "CENTRO VECINAL CERVECEROS Y AMPLIACION ", "TIPO_DE_INSTITUCI__N": "CENTRO VECINAL ", "CPC": "JARDIN", "SECCIONAL": 12, "CIRCUITO": "12H", "DIRECCION": "RAMON VILLAFAÑE N°2800", "TIPO_DE_INMUEBLE": "COMODATO MUNICIPAL VIGENTE ", "gx_media_links": null, "N": "CENTRO VECINAL", "TIPO DE INMUEBLE": "COMODATO MUNICIPAL VIGENTE" }, "geometry": { "type": "Point", "coordinates": [ -64.16011, -31.46331 ] } },
{ "type": "Feature", "properties": { "Name": "CENTRO VECINAL AMPLIACION SAN PABLO", "TIPO_DE_INSTITUCI__N": "CENTRO VECINAL", "CPC": "JARDIN", "SECCIONAL": 12, "CIRCUITO": "12F", "DIRECCION": "OLAEN N° 2728", "TIPO_DE_INMUEBLE": "COMODATO MUNICIPAL VIGENTE", "gx_media_links": null, "N": "CENTRO VECINAL", "TIPO DE INMUEBLE": "COMODATO MUNICIPAL VIGENTE" }, "geometry": { "type": "Point", "coordinates": [ -64.159887, -31.450797 ] } },
{ "type": "Feature", "properties": { "Name": "CENTRO VECINAL JARDIN HIPODROMO", "TIPO_DE_INSTITUCI__N": "CENTRO VECINAL ", "CPC": "JARDIN", "SECCIONAL": 4, "CIRCUITO": "4B", "DIRECCION": "EL VERONEZ N° 4070", "TIPO_DE_INMUEBLE": "COMODATO MUNICIPAL ", "gx_media_links": null, "N": "CENTRO VECINAL", "TIPO DE INMUEBLE": "COMODATO MUNICIPAL" }, "geometry": { "type": "Point", "coordinates": [ -64.18986, -31.46026 ] } },
{ "type": "Feature", "properties": { "Name": "CENTRO VECINAL KENNEDY Y AMPLIACION KENNEDY", "TIPO_DE_INSTITUCI__N": "CENTRO VECINAL", "CPC": "JARDIN", "SECCIONAL": 4, "CIRCUITO": "4A", "DIRECCION": "JOSÉ BENATTI N° 672", "TIPO_DE_INMUEBLE": "COMODATO MUNICIPAL", "gx_media_links": null, "N": "CENTRO VECINAL", "TIPO DE INMUEBLE": "COMODATO MUNICIPAL" }, "geometry": { "type": "Point", "coordinates": [ -64.190142, -31.458345 ] } },
{ "type": "Feature", "properties": { "Name": "CENTRO VECINAL SAN ANTONIO", "TIPO_DE_INSTITUCI__N": "CENTRO VECINAL", "CPC": "JARDIN", "SECCIONAL": 4, "CIRCUITO": "4C", "DIRECCION": "EUGENIO DE IGARZABAL N° 588", "TIPO_DE_INMUEBLE": "COMODATO MUNICIPAL", "gx_media_links": null, "N": "CENTRO VECINAL", "TIPO DE INMUEBLE": "COMODATO MUNICIPAL" }, "geometry": { "type": "Point", "coordinates": [ -64.192175, -31.472509 ] } },
{ "type": "Feature", "properties": { "Name": "CENTRO VECINAL BIALET MASSE", "TIPO_DE_INSTITUCI__N": "CENTRO VECINAL", "CPC": "JARDIN", "SECCIONAL": 12, "CIRCUITO": "12F", "DIRECCION": "LOS HORNILLOS N°2300", "TIPO_DE_INMUEBLE": "COMODATO MUNICIPAL", "gx_media_links": null, "N": "CENTRO VECINAL", "TIPO DE INMUEBLE": "COMODATO MUNICIPAL" }, "geometry": { "type": "Point", "coordinates": [ -64.16546, -31.45271 ] } },
{ "type": "Feature", "properties": { "Name": "COMISION DE VECINOS VILLA REVOL", "TIPO_DE_INSTITUCI__N": "COMISION DE VECINOS ", "CPC": "JARDIN", "SECCIONAL": 4, "CIRCUITO": "4B", "DIRECCION": "PJE BARRIENTOS ESQ. BRAGADO", "TIPO_DE_INMUEBLE": "PROPIO ", "gx_media_links": null, "N": "COMISION DE VECINOS", "TIPO DE INMUEBLE": "PROPIO" }, "geometry": { "type": "Point", "coordinates": [ -64.17317, -31.44505 ] } },
{ "type": "Feature", "properties": { "Name": "COMISION DE VECINOS SEP", "TIPO_DE_INSTITUCI__N": "COMISION DE VECINOS ", "CPC": "JARDIN", "SECCIONAL": 12, "CIRCUITO": "12H", "DIRECCION": "CELSO BARRIOS N°2222", "TIPO_DE_INMUEBLE": "COMODATO MUNICIPAL ", "gx_media_links": null, "N": "COMISION DE VECINOS", "TIPO DE INMUEBLE": "COMODATO MUNICIPAL" }, "geometry": { "type": "Point", "coordinates": [ -64.16576, -31.4589 ] } }
]
}
